"stop_id","stop_code","stop_name","stop_lat","stop_lon","stop_url","wheelchair_boarding","preferred"
"100400","100400","Noorderwijk Kerk Feestbus Oudjaar","51.140910","4.839890","https://www.delijn.be/nl/haltes/100400","0","2"
"100401","100401","Noorderwijk Kerk Feestbus Oudjaar","51.140870","4.840050","https://www.delijn.be/nl/haltes/100401","0","2"
"100487","100487","Merksplas Dorp Feestbus Oudjaar","51.358240","4.862760","https://www.delijn.be/nl/haltes/100487","0","2"
"100488","100488","Merksplas Dorp Feestbus Oudjaar","51.358110","4.862810","https://www.delijn.be/nl/haltes/100488","0","2"
"100804","100804","Antwerpen Gounod vervanghalte","51.205590","4.410460","https://www.delijn.be/nl/haltes/100804","0","2"
"101000","101000","Wilrijk A. Chantrainestraat","51.163970","4.392000","https://www.delijn.be/nl/haltes/101000","0","2"
"101001","101001","Antwerpen Zurenborg","51.206330","4.425550","https://www.delijn.be/nl/haltes/101001","0","2"
"101002","101002","Hoboken Verenigde Natieslaan","51.166040","4.357700","https://www.delijn.be/nl/haltes/101002","0","2"
"101003","101003","Hoboken Verenigde Natieslaan","51.166000","4.357600","https://www.delijn.be/nl/haltes/101003","0","2"
"101004","101004","Hoboken D. Baginierlaan","51.174060","4.341270","https://www.delijn.be/nl/haltes/101004","0","2"
"101005","101005","Wilrijk A. Chantrainestraat","51.163020","4.392320","https://www.delijn.be/nl/haltes/101005","0","2"
"101006","101006","Wilrijk Fotografielaan","51.159780","4.362130","https://www.delijn.be/nl/haltes/101006","0","2"
"101007","101007","Wilrijk Fotografielaan","51.159960","4.361860","https://www.delijn.be/nl/haltes/101007","0","2"
"101008","101008","Wilrijk Moerelei","51.162900","4.385830","https://www.delijn.be/nl/haltes/101008","0","1"
"101009","101009","Wilrijk Moerelei","51.163460","4.383980","https://www.delijn.be/nl/haltes/101009","0","1"
"101010","101010","Antwerpen J. De Voslei","51.188760","4.389630","https://www.delijn.be/nl/haltes/101010","1","2"
"101011","101011","Antwerpen Middelheim Vijver","51.182980","4.418990","https://www.delijn.be/nl/haltes/101011","0","1"
"101012","101012","Wilrijk Antarctica","51.162203","4.372329","https://www.delijn.be/nl/haltes/101012","0","2"
"101013","101013","Wilrijk Antarctica","51.161950","4.371560","https://www.delijn.be/nl/haltes/101013","0","2"
"101014","101014","Wilrijk Rozenkransplein","51.179380","4.391520","https://www.delijn.be/nl/haltes/101014","0","2"
"101015","101015","Wilrijk Rozenkransplein","51.179750","4.391510","https://www.delijn.be/nl/haltes/101015","0","2"
"101016","101016","Wilrijk L. Kieboomsstraat","51.175070","4.393680","https://www.delijn.be/nl/haltes/101016","0","2"
"101017","101017","Wilrijk L. Kieboomsstraat","51.175440","4.393400","https://www.delijn.be/nl/haltes/101017","0","2"
"101018","101018","Wilrijk Rooiboslaan","51.176920","4.382060","https://www.delijn.be/nl/haltes/101018","0","2"
"101020","101020","Antwerpen A. Grisarstraat","51.200080","4.420040","https://www.delijn.be/nl/haltes/101020","0","2"
"101022","101022","Wilrijk Wilsonweg","51.162950","4.410000","https://www.delijn.be/nl/haltes/101022","0","2"
"101023","101023","Wilrijk Dr. Donnyplein","51.168380","4.405600","https://www.delijn.be/nl/haltes/101023","0","2"
"101024","101024","Wilrijk Dr. Donnyplein","51.168480","4.405680","https://www.delijn.be/nl/haltes/101024","0","2"
"101025","101025","Deurne Hermans","51.230380","4.473960","https://www.delijn.be/nl/haltes/101025","0","2"
"101026","101026","Wilrijk Klaproosstraat","51.170200","4.407140","https://www.delijn.be/nl/haltes/101026","0","2"
"101027","101027","Wilrijk Klaproosstraat","51.170070","4.407320","https://www.delijn.be/nl/haltes/101027","1","2"
"101028","101028","Morkhoven Station","51.126930","4.827520","https://www.delijn.be/nl/haltes/101028","0","2"
"101029","101029","Morkhoven Station","51.126740","4.827590","https://www.delijn.be/nl/haltes/101029","0","2"
"101030","101030","Deurne Hermans","51.230680","4.474930","https://www.delijn.be/nl/haltes/101030","1","2"
"101031","101031","Mechelen Verbertstraat","51.000980","4.483990","https://www.delijn.be/nl/haltes/101031","0","2"
"101033","101033","Ekeren Blarenstraat","51.281190","4.418020","https://www.delijn.be/nl/haltes/101033","0","2"
"101034","101034","Essen Postbaan","51.447140","4.495970","https://www.delijn.be/nl/haltes/101034","0","2"
"101035","101035","Borgerhout Te Boelaarlei","51.204190","4.452010","https://www.delijn.be/nl/haltes/101035","0","2"
"101036","101036","Breendonk Hoogheide 39","51.042750","4.295350","https://www.delijn.be/nl/haltes/101036","0","2"
"101037","101037","Essen Postbaan","51.447100","4.495830","https://www.delijn.be/nl/haltes/101037","0","2"
"101038","101038","Vorselaar Dorp","51.200760","4.772780","https://www.delijn.be/nl/haltes/101038","1","2"
"101039","101039","Merksem Irislei","51.247590","4.458630","https://www.delijn.be/nl/haltes/101039","0","2"
"101040","101040","Merksem Irislei","51.247700","4.458640","https://www.delijn.be/nl/haltes/101040","0","2"
"101041","101041","Wilrijk Valkstraat","51.169070","4.387010","https://www.delijn.be/nl/haltes/101041","0","2"
"101046","101046","Schelle Acacialaan","51.119310","4.329680","https://www.delijn.be/nl/haltes/101046","0","2"
"101047","101047","Schelle Acacialaan","51.119210","4.329600","https://www.delijn.be/nl/haltes/101047","0","2"
"101048","101048","Antwerpen A. Van Cauwelaert","51.220330","4.375130","https://www.delijn.be/nl/haltes/101048","1","2"
"101049","101049","Antwerpen A. Van Cauwelaert","51.220250","4.374700","https://www.delijn.be/nl/haltes/101049","1","2"
"101050","101050","Deurne A. Van De Wielelei","51.218210","4.481610","https://www.delijn.be/nl/haltes/101050","1","2"
"101054","101054","Berchem Bikschotelaan","51.192950","4.447100","https://www.delijn.be/nl/haltes/101054","0","2"
"101055","101055","Deurne A. Van De Wielelei","51.218350","4.481230","https://www.delijn.be/nl/haltes/101055","1","2"
"101059","101059","Rijkevorsel Sint-Jozef Oude Goorstraat","51.333700","4.780990","https://www.delijn.be/nl/haltes/101059","0","2"
"101060","101060","Boom Industrieweg","51.095190","4.358380","https://www.delijn.be/nl/haltes/101060","0","2"
"101061","101061","Boom Industrieweg","51.095270","4.358320","https://www.delijn.be/nl/haltes/101061","0","2"
"101062","101062","Boom Tunnelweg","51.099810","4.353910","https://www.delijn.be/nl/haltes/101062","0","2"
"101063","101063","Boom Tunnelweg","51.099860","4.353680","https://www.delijn.be/nl/haltes/101063","0","2"
"101064","101064","Reet Hof Daman","51.110110","4.371910","https://www.delijn.be/nl/haltes/101064","0","2"
"101066","101066","Hemiksem Werkplaatsen","51.156620","4.344600","https://www.delijn.be/nl/haltes/101066","0","1"
"101067","101067","Hemiksem Werkplaatsen","51.156710","4.344690","https://www.delijn.be/nl/haltes/101067","1","1"
"101068","101068","Hemiksem Irisweg","51.154430","4.347200","https://www.delijn.be/nl/haltes/101068","0","2"
"101069","101069","Hemiksem Irisweg","51.154400","4.347030","https://www.delijn.be/nl/haltes/101069","0","2"
"101070","101070","Hoboken Aartselaarstraat","51.176910","4.368120","https://www.delijn.be/nl/haltes/101070","1","2"
"101071","101071","Hemiksem Heiligstraat","51.150220","4.349810","https://www.delijn.be/nl/haltes/101071","0","2"
"101072","101072","Hemiksem Heiligstraat","51.150750","4.349620","https://www.delijn.be/nl/haltes/101072","0","2"
"101073","101073","Hemiksem Landbouwweg","51.147560","4.347780","https://www.delijn.be/nl/haltes/101073","0","2"
"101074","101074","Hemiksem Landbouwweg","51.147620","4.347890","https://www.delijn.be/nl/haltes/101074","0","2"
"101075","101075","Hoboken Aartselaarstraat","51.177440","4.368340","https://www.delijn.be/nl/haltes/101075","1","2"
"101076","101076","Hemiksem Gemeenteplaats","51.144300","4.346640","https://www.delijn.be/nl/haltes/101076","0","1"
"101077","101077","Hemiksem Gemeenteplaats","51.144350","4.346650","https://www.delijn.be/nl/haltes/101077","0","1"
"101078","101078","Hemiksem Kerkstraat","51.142920","4.344420","https://www.delijn.be/nl/haltes/101078","0","2"
"101079","101079","Hemiksem Kerkstraat","51.143070","4.344710","https://www.delijn.be/nl/haltes/101079","0","2"
"101080","101080","Antwerpen Abdijstraat","51.189760","4.377960","https://www.delijn.be/nl/haltes/101080","0","1"
"101081","101081","Hemiksem Beukenlaan","51.139760","4.345600","https://www.delijn.be/nl/haltes/101081","0","2"
"101082","101082","Hemiksem Beukenlaan","51.139640","4.345380","https://www.delijn.be/nl/haltes/101082","0","2"
"101083","101083","Hemiksem Bouwerijstraat","51.136970","4.344690","https://www.delijn.be/nl/haltes/101083","0","2"
"101084","101084","Hemiksem Bouwerijstraat","51.136980","4.344420","https://www.delijn.be/nl/haltes/101084","0","2"
"101085","101085","Antwerpen Abdijstraat","51.190750","4.378890","https://www.delijn.be/nl/haltes/101085","0","1"
"101086","101086","Hemiksem Atletiekstraat","51.136500","4.341970","https://www.delijn.be/nl/haltes/101086","0","2"
"101087","101087","Hemiksem Atletiekstraat","51.136660","4.342100","https://www.delijn.be/nl/haltes/101087","0","2"
"101088","101088","Hemiksem Station","51.136250","4.337480","https://www.delijn.be/nl/haltes/101088","0","1"
"101089","101089","Hemiksem Station","51.136290","4.337730","https://www.delijn.be/nl/haltes/101089","0","1"
"101090","101090","Wilrijk Eglantierlaan","51.182200","4.394480","https://www.delijn.be/nl/haltes/101090","0","2"
"101091","101091","Itegem Oude Steenweg","51.103727","4.716069","https://www.delijn.be/nl/haltes/101091","0","2"
"101092","101092","Itegem Oude Steenweg","51.103720","4.715530","https://www.delijn.be/nl/haltes/101092","0","2"
"101093","101093","Niel Het Geleeg","51.111450","4.345110","https://www.delijn.be/nl/haltes/101093","0","2"
"101094","101094","Niel Het Geleeg","51.111220","4.345670","https://www.delijn.be/nl/haltes/101094","0","2"
"101096","101096","Itegem Beukenlaan","51.095050","4.711210","https://www.delijn.be/nl/haltes/101096","0","2"
"101098","101098","Lichtaart Olensteenweg","51.209920","4.902470","https://www.delijn.be/nl/haltes/101098","1","2"
"101099","101099","Lichtaart Olensteenweg","51.209860","4.902680","https://www.delijn.be/nl/haltes/101099","0","2"
"101101","101101","Poederlee Schrieken","51.223010","4.831010","https://www.delijn.be/nl/haltes/101101","0","2"
"101102","101102","Dessel Goormansdijk","51.229200","5.114510","https://www.delijn.be/nl/haltes/101102","0","2"
"101104","101104","Kapelle-op-den-Bos Huttekensstraat","51.004160","4.361260","https://www.delijn.be/nl/haltes/101104","0","2"
"101108","101108","Kapelle-op-den-Bos Huttekensstraat","51.004090","4.361380","https://www.delijn.be/nl/haltes/101108","0","2"
"101109","101109","Molenstede Eikelenberg","51.012220","5.022900","https://www.delijn.be/nl/haltes/101109","0","2"
"101110","101110","Antwerpen Straatsburgdok","51.241210","4.420470","https://www.delijn.be/nl/haltes/101110","0","2"
"101111","101111","Molenstede Eikelenberg","51.012150","5.022700","https://www.delijn.be/nl/haltes/101111","0","2"
"101112","101112","Turnhout Apostoliekenstraat","51.315620","4.950010","https://www.delijn.be/nl/haltes/101112","0","2"
"101113","101113","Herenthout Markt","51.138930","4.756410","https://www.delijn.be/nl/haltes/101113","0","2"
"101114","101114","Borgerhout Station Oost","51.208920","4.436530","https://www.delijn.be/nl/haltes/101114","0","2"
"101116","101116","Turnhout Rubensstraat","51.315370","4.940150","https://www.delijn.be/nl/haltes/101116","1","2"
"101117","101117","Bonheiden Sint-Ludwinakerk","51.035880","4.536250","https://www.delijn.be/nl/haltes/101117","0","2"
"101118","101118","Bonheiden Sint-Ludwinakerk","51.035970","4.535510","https://www.delijn.be/nl/haltes/101118","0","2"
"101119","101119","Herenthout Verbistlaan","51.136890","4.745800","https://www.delijn.be/nl/haltes/101119","0","2"
"101121","101121","Herenthout Verbistlaan","51.137050","4.746800","https://www.delijn.be/nl/haltes/101121","0","2"
"101122","101122","Kessel Landstraat","51.145580","4.623930","https://www.delijn.be/nl/haltes/101122","0","2"
"101123","101123","Kessel Landstraat","51.146080","4.623770","https://www.delijn.be/nl/haltes/101123","0","2"
"101124","101124","Kessel Nieuwstraat","51.142250","4.624570","https://www.delijn.be/nl/haltes/101124","0","2"
"101125","101125","Antwerpen Bestorming","51.206410","4.396720","https://www.delijn.be/nl/haltes/101125","0","1"
"101127","101127","Kessel Nieuwstraat","51.142140","4.624710","https://www.delijn.be/nl/haltes/101127","0","2"
"101128","101128","Kessel Nieuwe Bevelsesteenweg","51.137520","4.633870","https://www.delijn.be/nl/haltes/101128","0","2"
"101130","101130","Antwerpen Begijnenvest","51.209790","4.402060","https://www.delijn.be/nl/haltes/101130","1","2"
"101131","101131","Niel Lode Zielensstraat","51.111780","4.342220","https://www.delijn.be/nl/haltes/101131","0","2"
"101132","101132","Niel Lode Zielensstraat","51.111900","4.342120","https://www.delijn.be/nl/haltes/101132","0","2"
"101133","101133","Wilrijk Dr. Veeckmanslaan","51.176260","4.388980","https://www.delijn.be/nl/haltes/101133","0","2"
"101134","101134","Wilrijk Dr. Veeckmanslaan","51.177290","4.388440","https://www.delijn.be/nl/haltes/101134","1","2"
"101135","101135","Antwerpen Sint-Jansplein","51.224540","4.416270","https://www.delijn.be/nl/haltes/101135","0","1"
"101136","101136","Antwerpen Sint-Jansplein","51.224700","4.416320","https://www.delijn.be/nl/haltes/101136","0","1"
"101137","101137","Wilrijk Geleegweg","51.158460","4.388420","https://www.delijn.be/nl/haltes/101137","0","2"
"101138","101138","Wilrijk Geleegweg","51.158900","4.388050","https://www.delijn.be/nl/haltes/101138","0","2"
"101140","101140","Kessel Nieuwe Bevelsesteenweg","51.137900","4.633380","https://www.delijn.be/nl/haltes/101140","0","2"
"101141","101141","Wilrijk Planetariumlaan","51.156150","4.389520","https://www.delijn.be/nl/haltes/101141","0","2"
"101142","101142","Wilrijk Planetariumlaan","51.156140","4.389350","https://www.delijn.be/nl/haltes/101142","0","2"
"101145","101145","Deurne Antwerp stadion","51.228400","4.469560","https://www.delijn.be/nl/haltes/101145","1","2"
"101146","101146","Boom Steenbakkerijenstraat","51.092480","4.377710","https://www.delijn.be/nl/haltes/101146","0","2"
"101147","101147","Boom Steenbakkerijenstraat","51.092760","4.377910","https://www.delijn.be/nl/haltes/101147","0","2"
"101148","101148","Boom De Schorre","51.089590","4.375810","https://www.delijn.be/nl/haltes/101148","0","2"
"101150","101150","Deurne Antwerp stadion","51.228340","4.469730","https://www.delijn.be/nl/haltes/101150","1","2"
"101151","101151","Boom Van Leriuslaan","51.099970","4.372510","https://www.delijn.be/nl/haltes/101151","0","2"
"101152","101152","Boom Van Leriuslaan","51.100050","4.372380","https://www.delijn.be/nl/haltes/101152","0","2"
"101155","101155","Reusel Evenementenhalte","51.360930","5.159290","https://www.delijn.be/nl/haltes/101155","0","2"
"101156","101156","Wilrijk Rooiboslaan","51.176550","4.381030","https://www.delijn.be/nl/haltes/101156","0","2"
"101157","101157","Wilrijk Terbekehofdreef","51.152460","4.381560","https://www.delijn.be/nl/haltes/101157","0","2"
"101158","101158","Liezele Achterheide","51.056140","4.265000","https://www.delijn.be/nl/haltes/101158","0","2"
"101159","101159","Boechout Stoofstraat","51.153180","4.524690","https://www.delijn.be/nl/haltes/101159","0","2"
"101160","101160","Borgerhout Apollo","51.200480","4.446800","https://www.delijn.be/nl/haltes/101160","1","2"
"101161","101161","Hemiksem Steenbakkerijstraat","51.137750","4.335590","https://www.delijn.be/nl/haltes/101161","1","2"
"101162","101162","Hemiksem Steenbakkerijstraat","51.137860","4.335470","https://www.delijn.be/nl/haltes/101162","0","2"
"101166","101166","Mortsel Deurnestraat","51.178220","4.443810","https://www.delijn.be/nl/haltes/101166","0","2"
"101167","101167","Mortsel Deurnestraat","51.178290","4.443340","https://www.delijn.be/nl/haltes/101167","0","2"
"101170","101170","Deurne Atheneum","51.222400","4.458940","https://www.delijn.be/nl/haltes/101170","0","2"
"101171","101171","Berchem Grotesteenweg","51.180310","4.434110","https://www.delijn.be/nl/haltes/101171","0","1"
"101172","101172","Berchem Grotesteenweg","51.180920","4.434430","https://www.delijn.be/nl/haltes/101172","0","1"
"101173","101173","Wilrijk Wolfbeemdstraat","51.177910","4.429130","https://www.delijn.be/nl/haltes/101173","0","2"
"101174","101174","Wilrijk Wolfbeemdstraat","51.178180","4.428730","https://www.delijn.be/nl/haltes/101174","1","2"
"101175","101175","Deurne Atheneum","51.222290","4.459460","https://www.delijn.be/nl/haltes/101175","0","2"
"101176","101176","Aartselaar Wullebeekstraat","51.124580","4.387210","https://www.delijn.be/nl/haltes/101176","0","2"
"101177","101177","Aartselaar Wullebeekstraat","51.124710","4.387220","https://www.delijn.be/nl/haltes/101177","0","2"
"101178","101178","Aartselaar Ooievaarsbos","51.124300","4.380750","https://www.delijn.be/nl/haltes/101178","0","2"
"101179","101179","Aartselaar Ooievaarsbos","51.124180","4.380780","https://www.delijn.be/nl/haltes/101179","0","2"
"101181","101181","Kapelle-op-den-Bos Kerk","51.012550","4.355080","https://www.delijn.be/nl/haltes/101181","0","2"
"101182","101182","Hingene Schoonaardestraat","51.089660","4.275970","https://www.delijn.be/nl/haltes/101182","0","2"
"101183","101183","Hingene Polderdam","51.114550","4.291810","https://www.delijn.be/nl/haltes/101183","0","2"
"101184","101184","Minderhout  Minderhoutsestraat oudjaar","51.432167","4.750828","https://www.delijn.be/nl/haltes/101184","0","2"
"101186","101186","Aartselaar Aquafin","51.148490","4.393940","https://www.delijn.be/nl/haltes/101186","1","2"
"101187","101187","Wilrijk Aquafin","51.149060","4.393610","https://www.delijn.be/nl/haltes/101187","1","2"
"101188","101188","Bornem Vitsdam","51.106740","4.239190","https://www.delijn.be/nl/haltes/101188","0","2"
"101189","101189","Buitenland Reek","51.110790","4.235100","https://www.delijn.be/nl/haltes/101189","0","2"
"101191","101191","Buitenland Reuzenhuis","51.114280","4.231750","https://www.delijn.be/nl/haltes/101191","0","1"
"101192","101192","Buitenland 't Buitenland","51.116000","4.223150","https://www.delijn.be/nl/haltes/101192","0","2"
"101193","101193","Weert Sas","51.117120","4.214700","https://www.delijn.be/nl/haltes/101193","0","2"
"101194","101194","Minderhout  Minderhoutsestraat oudjaar","51.432240","4.750961","https://www.delijn.be/nl/haltes/101194","0","2"
"101195","101195","Antwerpen Stadspark","51.214080","4.411680","https://www.delijn.be/nl/haltes/101195","1","2"
"101196","101196","Weert Theresiakapel","51.114140","4.213040","https://www.delijn.be/nl/haltes/101196","0","2"
"101197","101197","Weert Polder","51.116150","4.208720","https://www.delijn.be/nl/haltes/101197","0","2"
"101198","101198","Weert Dreef","51.114130","4.205160","https://www.delijn.be/nl/haltes/101198","0","2"
"101199","101199","Weert Vijverland","51.109740","4.199270","https://www.delijn.be/nl/haltes/101199","0","2"
"101200","101200","Antwerpen Ballaarstraat","51.204260","4.404550","https://www.delijn.be/nl/haltes/101200","0","2"
"101201","101201","Borgerhout Te Boelaarpark","51.198206","4.454748","https://www.delijn.be/nl/haltes/101201","0","2"
"101203","101203","Weert Weert","51.102220","4.180630","https://www.delijn.be/nl/haltes/101203","0","2"
"101204","101204","Weert Kasteel","51.111853","4.216383","https://www.delijn.be/nl/haltes/101204","0","2"
"101205","101205","Edegem Baron De Celleslaan","51.155760","4.434640","https://www.delijn.be/nl/haltes/101205","0","2"
"101206","101206","Weert Den Hoek","51.107900","4.221270","https://www.delijn.be/nl/haltes/101206","0","2"
"101207","101207","Weert Kachel","51.105200","4.199660","https://www.delijn.be/nl/haltes/101207","0","2"
"101209","101209","Branst Riddermoerstraat","51.076020","4.212610","https://www.delijn.be/nl/haltes/101209","0","2"
"101210","101210","Deurne Baron Leroystraat","51.226370","4.472520","https://www.delijn.be/nl/haltes/101210","0","2"
"101211","101211","Mariekerke Bornemstraat","51.063440","4.206250","https://www.delijn.be/nl/haltes/101211","0","2"
"101212","101212","Deurne Drakenhoflaan","51.197144","4.459254","https://www.delijn.be/nl/haltes/101212","0","2"
"101213","101213","Boortmeerbeek Schippersbos","50.976912","4.562154","https://www.delijn.be/nl/haltes/101213","0","2"
"101214","101214","Boortmeerbeek Schippersbos","50.976776","4.562208","https://www.delijn.be/nl/haltes/101214","0","2"
"101215","101215","Deurne Baron Leroystraat","51.226100","4.472520","https://www.delijn.be/nl/haltes/101215","0","2"
"101216","101216","Berlaar Smidstraat","51.084600","4.656140","https://www.delijn.be/nl/haltes/101216","0","2"
"101218","101218","Bornem P. Colomalaan","51.086510","4.262630","https://www.delijn.be/nl/haltes/101218","0","2"
"101219","101219","Kalmthout Marktplein","51.393090","4.474352","https://www.delijn.be/nl/haltes/101219","0","2"
"101221","101221","Sint-Amands Kerkstraat","51.056400","4.203080","https://www.delijn.be/nl/haltes/101221","0","1"
"101222","101222","Sint-Amands Gemeentehuis","51.054610","4.205180","https://www.delijn.be/nl/haltes/101222","0","2"
"101223","101223","Sint-Amands Scheldelaan","51.047080","4.203420","https://www.delijn.be/nl/haltes/101223","0","2"
"101224","101224","Bonheiden AZ Imelda","51.018420","4.560480","https://www.delijn.be/nl/haltes/101224","0","2"
"101225","101225","Kalmthout Marktplein","51.392297","4.474610","https://www.delijn.be/nl/haltes/101225","0","2"
"101226","101226","Oppuurs Kattestraat","51.070370","4.240650","https://www.delijn.be/nl/haltes/101226","0","2"
"101227","101227","Puurs Meir","51.064510","4.256290","https://www.delijn.be/nl/haltes/101227","0","2"
"101228","101228","Puurs Overheide","51.063380","4.265520","https://www.delijn.be/nl/haltes/101228","0","2"
"101229","101229","Kalmthout Strijboshof","51.395048","4.483539","https://www.delijn.be/nl/haltes/101229","0","2"
"101230","101230","Antwerpen Begijnenvest","51.209860","4.402220","https://www.delijn.be/nl/haltes/101230","1","2"
"101231","101231","Kalmthout Strijboshof","51.394826","4.482737","https://www.delijn.be/nl/haltes/101231","0","2"
"101232","101232","Oelegem Kerk","51.210946","4.596809","https://www.delijn.be/nl/haltes/101232","0","2"
"101235","101235","Antwerpen Montigny","51.205910","4.393370","https://www.delijn.be/nl/haltes/101235","1","2"
"101240","101240","Antwerpen Bestorming","51.206100","4.396320","https://www.delijn.be/nl/haltes/101240","0","1"
"101250","101250","Antwerpen Belgiëlei","51.206000","4.417280","https://www.delijn.be/nl/haltes/101250","0","2"
"101255","101255","Antwerpen Belgiëlei","51.205460","4.418650","https://www.delijn.be/nl/haltes/101255","0","2"
"101261","101261","Berchem Sint-Willibrordus","51.192920","4.423370","https://www.delijn.be/nl/haltes/101261","1","2"
"101262","101262","Berchem Sint-Willibrordus","51.192230","4.420920","https://www.delijn.be/nl/haltes/101262","1","2"
"101267","101267","Berchem Station perron 21","51.200010","4.431700","https://www.delijn.be/nl/haltes/101267","0","1"
"101269","101269","Ravels Eel Kerk","51.392111","5.015746","https://www.delijn.be/nl/haltes/101269","0","2"
"101270","101270","Achterbroek Dorpshuis","51.396682","4.497559","https://www.delijn.be/nl/haltes/101270","0","2"
"101271","101271","Achterbroek Dorpshuis","51.396618","4.498069","https://www.delijn.be/nl/haltes/101271","0","2"
"101272","101272","Antwerpen Fina Haven 447","51.254300","4.331100","https://www.delijn.be/nl/haltes/101272","0","2"
"101273","101273","Antwerpen Fina Haven 447","51.254490","4.331630","https://www.delijn.be/nl/haltes/101273","0","2"
"101274","101274","Merksem De Biezen","51.254330","4.452690","https://www.delijn.be/nl/haltes/101274","0","2"
"101275","101275","Kalmthout Achterbroek Kerk","51.397585","4.500271","https://www.delijn.be/nl/haltes/101275","0","2"
"101276","101276","Antwerpen Fina Vulcentrum","51.257050","4.320040","https://www.delijn.be/nl/haltes/101276","0","2"
"101277","101277","Antwerpen Fina Vulcentrum","51.257330","4.320160","https://www.delijn.be/nl/haltes/101277","0","2"
"101278","101278","Antwerpen Fina Poort 1","51.272810","4.319280","https://www.delijn.be/nl/haltes/101278","1","2"
"101279","101279","Antwerpen Fina Poort 1","51.272340","4.319190","https://www.delijn.be/nl/haltes/101279","0","2"
"101280","101280","Kalmthout Achterbroek Kerk","51.397536","4.500066","https://www.delijn.be/nl/haltes/101280","0","2"
"101281","101281","Tongerlo Tongelsbos","51.117681","4.908735","https://www.delijn.be/nl/haltes/101281","0","2"
"101282","101282","Retie Werbeek","51.257677","5.099772","https://www.delijn.be/nl/haltes/101282","0","2"
"101283","101283","Retie Werbeek","51.257570","5.099689","https://www.delijn.be/nl/haltes/101283","0","2"
"101284","101284","Turnhout Oprit brug E34","51.303022","4.950828","https://www.delijn.be/nl/haltes/101284","0","2"
"101285","101285","Berchem Station perron 12","51.201580","4.434320","https://www.delijn.be/nl/haltes/101285","0","1"
"101286","101286","Rumst Tuinwijk","51.080787","4.429148","https://www.delijn.be/nl/haltes/101286","0","2"
"101287","101287","Rumst Tuinwijk","51.080661","4.429403","https://www.delijn.be/nl/haltes/101287","0","2"
"101288","101288","Rumst Nieuwstraat","51.081058","4.416737","https://www.delijn.be/nl/haltes/101288","0","2"
"101289","101289","Rumst Nieuwstraat","51.080984","4.416627","https://www.delijn.be/nl/haltes/101289","0","2"
"101290","101290","Berchem Station perron 13","51.201580","4.434130","https://www.delijn.be/nl/haltes/101290","0","1"
"101292","101292","Stabroek P+R Stabroek","51.327400","4.354270","https://www.delijn.be/nl/haltes/101292","1","1"
"101293","101293","Stabroek P+R Stabroek","51.327230","4.354130","https://www.delijn.be/nl/haltes/101293","1","1"
"101296","101296","Brasschaat P+R Sint-Job","51.310080","4.554010","https://www.delijn.be/nl/haltes/101296","1","1"
"101297","101297","Brasschaat P+R Sint-Job","51.310150","4.555520","https://www.delijn.be/nl/haltes/101297","0","1"
"101298","101298","Brasschaat P+R Sint-Job","51.310270","4.555670","https://www.delijn.be/nl/haltes/101298","1","1"
"101299","101299","Lille P+R Lille","51.254760","4.808270","https://www.delijn.be/nl/haltes/101299","0","2"
"101300","101300","Lier Plaslaar","51.144093","4.544995","https://www.delijn.be/nl/haltes/101300","0","2"
"101301","101301","Berchem Station perron 31","51.200470","4.433540","https://www.delijn.be/nl/haltes/101301","1","1"
"101302","101302","Lille P+R Lille","51.255340","4.807180","https://www.delijn.be/nl/haltes/101302","1","2"
"101305","101305","Berchem Berchemboslaan","51.182220","4.436770","https://www.delijn.be/nl/haltes/101305","0","2"
"101310","101310","Berchem Berchemboslaan","51.181740","4.436730","https://www.delijn.be/nl/haltes/101310","0","2"
"101311","101311","Wijnegem Dorp (Acacialaan)","51.225670","4.521170","https://www.delijn.be/nl/haltes/101311","0","1"
"101312","101312","Wijnegem Wommelgemsteenweg","51.222500","4.524010","https://www.delijn.be/nl/haltes/101312","0","2"
"101313","101313","Wijnegem Wommelgemsteenweg","51.222400","4.523930","https://www.delijn.be/nl/haltes/101313","0","2"
"101315","101315","Borgerhout Berchemlei","51.205820","4.450460","https://www.delijn.be/nl/haltes/101315","0","2"
"101320","101320","Borgerhout Berchemlei","51.206320","4.449680","https://www.delijn.be/nl/haltes/101320","0","2"
"101331","101331","Weelde Turnhoutseweg","51.394560","4.998470","https://www.delijn.be/nl/haltes/101331","1","2"
"101332","101332","Weelde Turnhoutseweg","51.394270","4.998120","https://www.delijn.be/nl/haltes/101332","0","2"
"101341","101341","Beerzel Beerzelstraat","51.050970","4.681050","https://www.delijn.be/nl/haltes/101341","0","2"
"101344","101344","Bonheiden Gestelhoflei","51.038850","4.534060","https://www.delijn.be/nl/haltes/101344","0","2"
"101345","101345","Hoboken Berkenrodelei","51.180150","4.349340","https://www.delijn.be/nl/haltes/101345","0","2"
"101350","101350","Wilrijk Beukenlaan","51.175670","4.411210","https://www.delijn.be/nl/haltes/101350","1","2"
"101355","101355","Antwerpen Beukenlaan - Dikke Mee","51.186180","4.404010","https://www.delijn.be/nl/haltes/101355","0","2"
"101357","101357","Essen Bibliotheek","51.467020","4.466410","https://www.delijn.be/nl/haltes/101357","0","2"
"101358","101358","Essen Bibliotheek","51.467200","4.467150","https://www.delijn.be/nl/haltes/101358","0","2"
"101359","101359","Essen Kloosterstraat","51.465490","4.462200","https://www.delijn.be/nl/haltes/101359","0","2"
"101360","101360","Antwerpen Beukenlaan - Dikke Mee","51.186350","4.404110","https://www.delijn.be/nl/haltes/101360","0","2"
"101361","101361","Essen Sint-Antoniusstraat","51.463250","4.454660","https://www.delijn.be/nl/haltes/101361","0","2"
"101362","101362","Essen Kloosterstraat","51.465250","4.460870","https://www.delijn.be/nl/haltes/101362","0","2"
"101363","101363","Essen Sint-Antoniusstraat","51.463190","4.455580","https://www.delijn.be/nl/haltes/101363","0","2"
"101364","101364","Lier Industriestraat","51.148090","4.558900","https://www.delijn.be/nl/haltes/101364","0","2"
"101365","101365","Antwerpen Hemel","51.208530","4.412060","https://www.delijn.be/nl/haltes/101365","0","2"
"101366","101366","Lier Continental Sweets","51.148910","4.555780","https://www.delijn.be/nl/haltes/101366","0","2"
"101367","101367","Lier Paaiestraat","51.150990","4.559520","https://www.delijn.be/nl/haltes/101367","0","2"
"101368","101368","Lier Van In","51.149670","4.562640","https://www.delijn.be/nl/haltes/101368","0","2"
"101369","101369","Lier Hagenbroeksesteenweg","51.147710","4.569460","https://www.delijn.be/nl/haltes/101369","0","2"
"101370","101370","Antwerpen Desguinlei","51.193210","4.408230","https://www.delijn.be/nl/haltes/101370","0","2"
"101371","101371","Lier Sint-Jozefstraat","51.146400","4.573010","https://www.delijn.be/nl/haltes/101371","0","2"
"101372","101372","Lier Stadion","51.144830","4.572630","https://www.delijn.be/nl/haltes/101372","0","2"
"101373","101373","Lier Groeningelaan","51.144080","4.568440","https://www.delijn.be/nl/haltes/101373","0","2"
"101374","101374","Lier Pannenhuisstraat","51.141230","4.565570","https://www.delijn.be/nl/haltes/101374","0","2"
"101375","101375","Berchem Bikschotelaan","51.193380","4.446370","https://www.delijn.be/nl/haltes/101375","1","2"
"101377","101377","Lier Sporthal","51.138720","4.567130","https://www.delijn.be/nl/haltes/101377","0","2"
"101378","101378","Lier Dageraadsstraat","51.138220","4.563880","https://www.delijn.be/nl/haltes/101378","0","2"
"101379","101379","Lier De Mol","51.124870","4.574340","https://www.delijn.be/nl/haltes/101379","0","1"
"101380","101380","Berchem Bikschotelaan","51.192380","4.447150","https://www.delijn.be/nl/haltes/101380","1","2"
"101382","101382","Lier Beatrijslaan","51.142730","4.593120","https://www.delijn.be/nl/haltes/101382","0","2"
"101383","101383","Lier Kriekenstraat","51.144210","4.598320","https://www.delijn.be/nl/haltes/101383","0","2"
"101384","101384","Lier Bist","51.147910","4.601930","https://www.delijn.be/nl/haltes/101384","0","2"
"101385","101385","Borgerhout De Preter","51.199580","4.450830","https://www.delijn.be/nl/haltes/101385","1","1"
"101386","101386","Kessel Wilgenlaan","51.149760","4.605740","https://www.delijn.be/nl/haltes/101386","0","2"
"101387","101387","Kessel Esdoornlaan","51.150750","4.611960","https://www.delijn.be/nl/haltes/101387","0","2"
"101388","101388","Kessel Emblemsesteenweg","51.151420","4.616140","https://www.delijn.be/nl/haltes/101388","0","2"
"101390","101390","Kessel Ringstraat","51.147860","4.621720","https://www.delijn.be/nl/haltes/101390","0","2"
"101392","101392","Kessel Emblemsesteenweg","51.151520","4.615990","https://www.delijn.be/nl/haltes/101392","0","2"
"101393","101393","Kessel Esdoornlaan","51.150740","4.611300","https://www.delijn.be/nl/haltes/101393","0","2"
"101394","101394","Kessel Wilgenlaan","51.149850","4.605610","https://www.delijn.be/nl/haltes/101394","0","2"
"101396","101396","Lier Bist","51.148050","4.601910","https://www.delijn.be/nl/haltes/101396","0","2"
"101397","101397","Lier Australiëlaan","51.138750","4.558900","https://www.delijn.be/nl/haltes/101397","0","2"
"101398","101398","Lier Dageraadsstraat","51.138100","4.564340","https://www.delijn.be/nl/haltes/101398","0","2"
"101399","101399","Lier Sporthal","51.138900","4.567890","https://www.delijn.be/nl/haltes/101399","0","2"
"101401","101401","Lier Pannenhuisstraat","51.141450","4.565340","https://www.delijn.be/nl/haltes/101401","0","2"
"101402","101402","Lier Groeningelaan","51.143750","4.568090","https://www.delijn.be/nl/haltes/101402","0","2"
"101403","101403","Lier Stadion","51.144830","4.572800","https://www.delijn.be/nl/haltes/101403","0","2"
"101404","101404","Lier Sint-Jozefstraat","51.146470","4.573110","https://www.delijn.be/nl/haltes/101404","0","2"
"101406","101406","Lier Hagenbroeksesteenweg","51.147740","4.569690","https://www.delijn.be/nl/haltes/101406","0","2"
"101419","101419","Duffel Hogevelden","51.092910","4.512630","https://www.delijn.be/nl/haltes/101419","0","2"
"101421","101421","Duffel Sportcentrum","51.096000","4.495710","https://www.delijn.be/nl/haltes/101421","0","2"
"101422","101422","Duffel Station","51.091180","4.493850","https://www.delijn.be/nl/haltes/101422","0","1"
"101423","101423","Duffel Groenstraat","51.087320","4.486840","https://www.delijn.be/nl/haltes/101423","1","2"
"101424","101424","Duffel Groenstraat","51.087510","4.488200","https://www.delijn.be/nl/haltes/101424","0","2"
"101425","101425","Duffel Hogevelden","51.092900","4.512670","https://www.delijn.be/nl/haltes/101425","0","2"
"101430","101430","Deurne Menegemlei","51.199980","4.459740","https://www.delijn.be/nl/haltes/101430","0","2"
"101432","101432","Lier Smedenstraat","51.139730","4.545800","https://www.delijn.be/nl/haltes/101432","0","2"
"101437","101437","Duffel Acacialei","51.089990","4.515100","https://www.delijn.be/nl/haltes/101437","0","2"
"101438","101438","Duffel Acacialei","51.089780","4.515120","https://www.delijn.be/nl/haltes/101438","0","2"
"101439","101439","Duffel Kleuterstraat","51.086480","4.520930","https://www.delijn.be/nl/haltes/101439","0","2"
"101440","101440","Deurne Drakenhoflaan","51.196820","4.459690","https://www.delijn.be/nl/haltes/101440","0","1"
"101441","101441","Duffel Mijlstraat","51.106160","4.544350","https://www.delijn.be/nl/haltes/101441","0","2"
"101444","101444","Herentals Bakendonk","51.182680","4.820870","https://www.delijn.be/nl/haltes/101444","0","2"
"101445","101445","Wilrijk Boekstraat","51.167650","4.390120","https://www.delijn.be/nl/haltes/101445","0","2"
"101449","101449","Duffel Mijlstraat","51.106360","4.544370","https://www.delijn.be/nl/haltes/101449","0","2"
"101450","101450","Wilrijk Boekstraat","51.168350","4.390260","https://www.delijn.be/nl/haltes/101450","0","2"
"101453","101453","Duffel Poederstraat","51.098350","4.524780","https://www.delijn.be/nl/haltes/101453","1","2"
"101454","101454","Duffel Poederstraat","51.098270","4.525020","https://www.delijn.be/nl/haltes/101454","1","2"
"101459","101459","Herentals Heesveld","51.162630","4.832450","https://www.delijn.be/nl/haltes/101459","0","2"
"101460","101460","Antwerpen Bolivarplaats","51.203270","4.389430","https://www.delijn.be/nl/haltes/101460","1","2"
"101461","101461","Herentals Langepad","51.170220","4.855810","https://www.delijn.be/nl/haltes/101461","0","2"
"101466","101466","Olen P. Van Lommelstraat","51.161980","4.874220","https://www.delijn.be/nl/haltes/101466","0","2"
"101467","101467","Olen Vierhuizen","51.164940","4.880380","https://www.delijn.be/nl/haltes/101467","0","2"
"101468","101468","Olen Wagenmakersstraat","51.163090","4.888600","https://www.delijn.be/nl/haltes/101468","0","2"
"101469","101469","Olen Sint-Sebastiaanstraat","51.159759","4.883197","https://www.delijn.be/nl/haltes/101469","0","2"
"101471","101471","Olen Meren","51.154260","4.918070","https://www.delijn.be/nl/haltes/101471","0","2"
"101474","101474","Olen Neerheide","51.189960","4.886490","https://www.delijn.be/nl/haltes/101474","0","2"
"101484","101484","Voortkapel Kromstraat","51.113660","4.852660","https://www.delijn.be/nl/haltes/101484","0","2"
"101485","101485","Berchem De Merode","51.198870","4.415640","https://www.delijn.be/nl/haltes/101485","1","2"
"101488","101488","Voortkapel Trapstraat","51.112990","4.868730","https://www.delijn.be/nl/haltes/101488","0","2"
"101489","101489","Voortkapel Trapstraat","51.113020","4.868920","https://www.delijn.be/nl/haltes/101489","0","2"
"101494","101494","Heultje Stippelberg","51.076100","4.857230","https://www.delijn.be/nl/haltes/101494","0","2"
"101501","101501","Ramsel Hoekheide","51.026820","4.812210","https://www.delijn.be/nl/haltes/101501","0","2"
"101507","101507","Herselt Mottaart","51.041680","4.884550","https://www.delijn.be/nl/haltes/101507","0","2"
"101510","101510","Antwerpen De Bosschaert","51.184040","4.388890","https://www.delijn.be/nl/haltes/101510","1","2"
"101511","101511","Herselt Varenwinkel","51.029340","4.896130","https://www.delijn.be/nl/haltes/101511","0","2"
"101512","101512","Herselt Varenwinkel","51.029790","4.896000","https://www.delijn.be/nl/haltes/101512","0","2"
"101513","101513","Herselt Huisakkers","51.052330","4.874710","https://www.delijn.be/nl/haltes/101513","0","2"
"101514","101514","Herselt Limberg Vest","51.056220","4.871150","https://www.delijn.be/nl/haltes/101514","0","2"
"101515","101515","Berchem Station perron 15","51.201700","4.434490","https://www.delijn.be/nl/haltes/101515","0","1"
"101516","101516","Herselt Limberg","51.059795","4.882917","https://www.delijn.be/nl/haltes/101516","1","2"
"101517","101517","Herselt Limberg","51.059720","4.883120","https://www.delijn.be/nl/haltes/101517","1","2"
"101520","101520","Berchem Station perron 24","51.201470","4.433530","https://www.delijn.be/nl/haltes/101520","0","1"
"101522","101522","Westerlo de Merodedreef Boerenkrijgl.","51.090940","4.914030","https://www.delijn.be/nl/haltes/101522","0","2"
"101523","101523","Westerlo de Merodedreef Boerenkrijgl.","51.090930","4.913810","https://www.delijn.be/nl/haltes/101523","0","2"
"101525","101525","Deurne Van Riel","51.209850","4.474250","https://www.delijn.be/nl/haltes/101525","1","2"
"101529","101529","Tongerlo Melkerijstraat","51.114930","4.928730","https://www.delijn.be/nl/haltes/101529","0","2"
"101530","101530","Borgerhout De Roma","51.213920","4.441300","https://www.delijn.be/nl/haltes/101530","1","1"
"101533","101533","Oevel Violetstraat","51.136440","4.910190","https://www.delijn.be/nl/haltes/101533","0","2"
"101534","101534","Oosterwijk De Reid","51.128930","4.880420","https://www.delijn.be/nl/haltes/101534","0","2"
"101535","101535","Herselt Huisakkers","51.052260","4.874340","https://www.delijn.be/nl/haltes/101535","0","2"
"101540","101540","Antwerpen Antwerp Expo","51.191970","4.399400","https://www.delijn.be/nl/haltes/101540","1","1"
"101545","101545","Borgerhout Apollo","51.200680","4.445370","https://www.delijn.be/nl/haltes/101545","1","2"
"101546","101546","Oppuurs Lippeloseweg","51.059850","4.246400","https://www.delijn.be/nl/haltes/101546","0","2"
"101550","101550","Merksem Terlindenhofstraat","51.245120","4.441060","https://www.delijn.be/nl/haltes/101550","0","2"
"101551","101551","Lippelo Oppuurseweg","51.048550","4.254960","https://www.delijn.be/nl/haltes/101551","0","2"
"101553","101553","Lier Australiëlaan","51.138820","4.558730","https://www.delijn.be/nl/haltes/101553","0","2"
"101555","101555","Merksem Bredabaan","51.240850","4.435720","https://www.delijn.be/nl/haltes/101555","1","2"
"101556","101556","Merksem Bredabaan","51.240250","4.437120","https://www.delijn.be/nl/haltes/101556","1","2"
"101557","101557","Merksem Bredabaan","51.240260","4.437130","https://www.delijn.be/nl/haltes/101557","1","2"
"101565","101565","Antwerpen Bres","51.207620","4.398670","https://www.delijn.be/nl/haltes/101565","0","1"
"101571","101571","Schoten Gemeentelijk Sportpark","51.263060","4.506590","https://www.delijn.be/nl/haltes/101571","1","1"
"101572","101572","Schoten Gemeentelijk Sportpark","51.263000","4.506690","https://www.delijn.be/nl/haltes/101572","0","1"
"101573","101573","Wommelgem Dorp","51.203560","4.523170","https://www.delijn.be/nl/haltes/101573","0","1"
"101574","101574","Schoten Industriepark Brechtsebaan","51.263900","4.509480","https://www.delijn.be/nl/haltes/101574","0","1"
"101576","101576","Schoten J. Jennesstraat","51.260890","4.502930","https://www.delijn.be/nl/haltes/101576","0","2"
"101577","101577","Schoten J. Jennesstraat","51.260950","4.502700","https://www.delijn.be/nl/haltes/101577","1","2"
"101578","101578","Schoten Thuretstraat","51.257720","4.498120","https://www.delijn.be/nl/haltes/101578","0","2"
"101579","101579","Schoten Thuretstraat","51.257450","4.497510","https://www.delijn.be/nl/haltes/101579","1","2"
"101580","101580","Antwerpen Sint-Vincentius","51.207250","4.414380","https://www.delijn.be/nl/haltes/101580","0","2"
"101581","101581","Schoten Wilgendaalstraat","51.255180","4.493490","https://www.delijn.be/nl/haltes/101581","0","2"
"101582","101582","Schoten Wilgendaalstraat","51.254820","4.493050","https://www.delijn.be/nl/haltes/101582","0","2"
"101583","101583","Schoten Wolfsstraat","51.252640","4.488120","https://www.delijn.be/nl/haltes/101583","0","2"
"101584","101584","Schoten Wolfsstraat","51.252490","4.488110","https://www.delijn.be/nl/haltes/101584","0","2"
"101586","101586","Schoten Amerlolaan","51.251320","4.481720","https://www.delijn.be/nl/haltes/101586","0","2"
"101587","101587","Schoten Amerlolaan","51.251830","4.483110","https://www.delijn.be/nl/haltes/101587","0","2"
"101589","101589","Merksem Rietschoorvelden","51.256120","4.434070","https://www.delijn.be/nl/haltes/101589","0","2"
"101590","101590","Merksem Rietschoorvelden","51.256410","4.434340","https://www.delijn.be/nl/haltes/101590","0","2"
"101591","101591","Wommelgem Swinkelsstraat","51.206930","4.527880","https://www.delijn.be/nl/haltes/101591","0","2"
"101592","101592","Wommelgem Swinkelsstraat","51.206620","4.527320","https://www.delijn.be/nl/haltes/101592","0","2"
"101593","101593","Antwerpen Quebecstraat","51.258630","4.421850","https://www.delijn.be/nl/haltes/101593","0","2"
"101595","101595","Antwerpen Broedermin","51.202620","4.393020","https://www.delijn.be/nl/haltes/101595","0","2"
"101596","101596","Boechout Dr. T. Tutsstraat","51.161770","4.494340","https://www.delijn.be/nl/haltes/101596","0","2"
"101597","101597","Boechout Molenlei","51.162700","4.493200","https://www.delijn.be/nl/haltes/101597","0","2"
"101600","101600","Antwerpen Broedermin","51.203320","4.393850","https://www.delijn.be/nl/haltes/101600","0","2"
"101605","101605","Antwerpen Van Schoonbekeplein","51.226780","4.405540","https://www.delijn.be/nl/haltes/101605","0","2"
"101606","101606","Brasschaat De Burletheide","51.328620","4.524090","https://www.delijn.be/nl/haltes/101606","1","1"
"101607","101607","Brasschaat De Burletheide","51.328760","4.523860","https://www.delijn.be/nl/haltes/101607","0","1"
"101611","101611","Wommelgem Dorp","51.203580","4.523000","https://www.delijn.be/nl/haltes/101611","0","1"
"101614","101614","Wommelgem Echelveldstraat","51.204290","4.518020","https://www.delijn.be/nl/haltes/101614","0","2"
"101616","101616","Wommelgem Rollebeekstraat","51.205500","4.512490","https://www.delijn.be/nl/haltes/101616","0","2"
"101617","101617","Wommelgem Guddegemstraat","51.207060","4.508150","https://www.delijn.be/nl/haltes/101617","0","2"
"101620","101620","Antwerpen Straatsburgdok","51.241240","4.420630","https://www.delijn.be/nl/haltes/101620","1","2"
"101631","101631","Essen Tuincentrum","51.455670","4.474660","https://www.delijn.be/nl/haltes/101631","0","2"
"101632","101632","Essen Tuincentrum","51.455060","4.474830","https://www.delijn.be/nl/haltes/101632","0","2"
"101637","101637","Antwerpen Van Bree","51.209420","4.408250","https://www.delijn.be/nl/haltes/101637","0","2"
"101640","101640","Deurne Van Riel","51.210110","4.474140","https://www.delijn.be/nl/haltes/101640","1","2"
"101641","101641","Vlimmeren Lepelstraat","51.289460","4.778910","https://www.delijn.be/nl/haltes/101641","0","2"
"101642","101642","Vlimmeren Lepelstraat","51.289540","4.778740","https://www.delijn.be/nl/haltes/101642","0","2"
"101645","101645","Merksem Burgemeester Nolf","51.242730","4.441490","https://www.delijn.be/nl/haltes/101645","1","1"
"101649","101649","Antwerpen Middelheim Vijver","51.182420","4.418910","https://www.delijn.be/nl/haltes/101649","0","1"
"101651","101651","Sint-Job-in-'t-Goor Schorpioenlaan","51.292760","4.582770","https://www.delijn.be/nl/haltes/101651","0","2"
"101652","101652","Sint-Job-in-'t-Goor Schorpioenlaan","51.292640","4.582670","https://www.delijn.be/nl/haltes/101652","0","2"
"101654","101654","Lippelo Centrum","51.042761","4.259404","https://www.delijn.be/nl/haltes/101654","0","2"
"101655","101655","Bornem Rijkenhoek","51.103040","4.231140","https://www.delijn.be/nl/haltes/101655","0","2"
"101657","101657","Bornem Kinderboerderij","51.087650","4.233370","https://www.delijn.be/nl/haltes/101657","0","2"
"101660","101660","Bornem Kluisstraat","51.087210","4.249910","https://www.delijn.be/nl/haltes/101660","0","2"
"101661","101661","Weert Dijkstraat","51.104880","4.192740","https://www.delijn.be/nl/haltes/101661","0","2"
"101665","101665","Antwerpen Antwerp Expo","51.191900","4.397840","https://www.delijn.be/nl/haltes/101665","0","1"
"101666","101666","Herentals Netepark","51.188760","4.829300","https://www.delijn.be/nl/haltes/101666","0","2"
"101670","101670","Antwerpen Antwerp Expo","51.191230","4.398060","https://www.delijn.be/nl/haltes/101670","0","1"
"101671","101671","Mol Gompel Hoeve","51.193450","5.142350","https://www.delijn.be/nl/haltes/101671","0","2"
"101672","101672","Mol Gompel Hoeve","51.193590","5.142510","https://www.delijn.be/nl/haltes/101672","0","2"
"101673","101673","Gompel Pastoor Vaesstraat","51.193620","5.150480","https://www.delijn.be/nl/haltes/101673","0","2"
"101674","101674","Gompel Pastoor Vaesstraat","51.193680","5.150150","https://www.delijn.be/nl/haltes/101674","0","2"
"101675","101675","Deurne Clara Snellings","51.227150","4.464750","https://www.delijn.be/nl/haltes/101675","0","2"
"101676","101676","Goirle Wim Rotherlaan","51.511740","5.050640","https://www.delijn.be/nl/haltes/101676","1","2"
"101677","101677","Goirle Wim Rotherlaan","51.511890","5.050670","https://www.delijn.be/nl/haltes/101677","1","2"
"101678","101678","Goirle De Geitenhoef","51.514370","5.053240","https://www.delijn.be/nl/haltes/101678","0","2"
"101679","101679","Goirle De Geitenhoef","51.514250","5.053050","https://www.delijn.be/nl/haltes/101679","0","2"
"101680","101680","Deurne Clara Snellings","51.227210","4.464640","https://www.delijn.be/nl/haltes/101680","0","2"
"101685","101685","Antwerpen Canadalaan","51.255920","4.421680","https://www.delijn.be/nl/haltes/101685","0","2"
"101686","101686","Goirle Van Hogendorpplein","51.520940","5.058760","https://www.delijn.be/nl/haltes/101686","0","2"
"101687","101687","Goirle Van Hogendorpplein","51.520850","5.058420","https://www.delijn.be/nl/haltes/101687","0","2"
"101688","101688","Goirle Dorpsstraat","51.522990","5.064780","https://www.delijn.be/nl/haltes/101688","0","2"
"101689","101689","Goirle Dorpsstraat","51.523030","5.064840","https://www.delijn.be/nl/haltes/101689","0","2"
"101690","101690","Antwerpen Canadalaan","51.256160","4.421840","https://www.delijn.be/nl/haltes/101690","0","2"
"101691","101691","Goirle Baanakkerstraat","51.526920","5.063720","https://www.delijn.be/nl/haltes/101691","1","2"
"101692","101692","Goirle Baanakkerstraat","51.527560","5.063750","https://www.delijn.be/nl/haltes/101692","0","2"
"101699","101699","Wilrijk Legerstraat","51.162440","4.380580","https://www.delijn.be/nl/haltes/101699","1","2"
"101700","101700","Antwerpen Centraal Station perron 6","51.218620","4.421670","https://www.delijn.be/nl/haltes/101700","1","1"
"101701","101701","Wilrijk Legerstraat","51.162620","4.380840","https://www.delijn.be/nl/haltes/101701","1","2"
"101702","101702","Antwerpen Cadix","51.233140","4.409250","https://www.delijn.be/nl/haltes/101702","1","2"
"101705","101705","Antwerpen Zwarte Weg","51.244000","4.356030","https://www.delijn.be/nl/haltes/101705","0","2"
"101706","101706","Antwerpen Zwarte Weg","51.244060","4.356060","https://www.delijn.be/nl/haltes/101706","0","2"
"101719","101719","Geel Stadspark","51.164070","4.990110","https://www.delijn.be/nl/haltes/101719","0","2"
"101721","101721","Geel Stadspark","51.164130","4.989830","https://www.delijn.be/nl/haltes/101721","0","2"
"101722","101722","Kapellen Oude Ertbrandstraat","51.347020","4.400080","https://www.delijn.be/nl/haltes/101722","0","2"
"101723","101723","Kapellen Oude Ertbrandstraat","51.346500","4.400680","https://www.delijn.be/nl/haltes/101723","0","2"
"101724","101724","Reet Kerkhof","51.096840","4.417140","https://www.delijn.be/nl/haltes/101724","0","2"
"101725","101725","Antwerpen Centraal Station perron 10","51.216620","4.420520","https://www.delijn.be/nl/haltes/101725","1","1"
"101726","101726","Reet Kerkhof","51.096730","4.417390","https://www.delijn.be/nl/haltes/101726","0","2"
"101729","101729","Wommelgem Uilenbaan","51.215200","4.527570","https://www.delijn.be/nl/haltes/101729","0","2"
"101730","101730","Wommelgem Uilenbaan","51.215060","4.527410","https://www.delijn.be/nl/haltes/101730","0","2"
"101746","101746","Meersel-Dreef Oude Tramweg","51.494150","4.774060","https://www.delijn.be/nl/haltes/101746","0","2"
"101748","101748","Meersel-Dreef Scheurdekousweg","51.498170","4.769660","https://www.delijn.be/nl/haltes/101748","0","2"
"101749","101749","Meersel-Dreef Nieuwe Dreef","51.498690","4.775880","https://www.delijn.be/nl/haltes/101749","0","1"
"101750","101750","Hoboken Moretusburg","51.173440","4.337510","https://www.delijn.be/nl/haltes/101750","1","2"
"101756","101756","Antwerpen Bolivarplaats","51.204320","4.388120","https://www.delijn.be/nl/haltes/101756","1","2"
"101757","101757","Antwerpen Bolivarplaats","51.204160","4.388290","https://www.delijn.be/nl/haltes/101757","1","2"
"101760","101760","Hoboken Kapelstraat","51.174570","4.344500","https://www.delijn.be/nl/haltes/101760","0","2"
"101765","101765","Deurne Cogelsplein","51.219900","4.455080","https://www.delijn.be/nl/haltes/101765","1","2"
"101770","101770","Deurne Cogelsplein","51.219870","4.455320","https://www.delijn.be/nl/haltes/101770","1","2"
"101778","101778","Essen Noordeneind","51.449690","4.424630","https://www.delijn.be/nl/haltes/101778","0","2"
"101779","101779","Baarle-Nassau Sint-Janstraat","51.444690","4.927280","https://www.delijn.be/nl/haltes/101779","1","2"
"101780","101780","Borgerhout Joe English","51.212550","4.448510","https://www.delijn.be/nl/haltes/101780","0","1"
"101781","101781","Antwerpen Oudaan","51.215830","4.404930","https://www.delijn.be/nl/haltes/101781","0","2"
"101782","101782","Antwerpen Centraal Station perron 4","51.219370","4.420650","https://www.delijn.be/nl/haltes/101782","0","1"
"101785","101785","Deurne Confortalei","51.228030","4.457380","https://www.delijn.be/nl/haltes/101785","0","2"
"101790","101790","Deurne Confortalei","51.228200","4.457380","https://www.delijn.be/nl/haltes/101790","0","2"
"101795","101795","Antwerpen deSingel","51.194890","4.403340","https://www.delijn.be/nl/haltes/101795","0","2"
"101796","101796","Hoboken Vinkeveldenplein","51.173360","4.348260","https://www.delijn.be/nl/haltes/101796","0","2"
"101797","101797","Rijmenam Kluisbaantje","51.001650","4.578450","https://www.delijn.be/nl/haltes/101797","0","2"
"101798","101798","Rijmenam Coupurelei","51.004640","4.564520","https://www.delijn.be/nl/haltes/101798","0","2"
"101799","101799","Rijmenam Rijmenamsesteenweg","51.004220","4.553350","https://www.delijn.be/nl/haltes/101799","0","2"
"101800","101800","Antwerpen deSingel","51.193810","4.401720","https://www.delijn.be/nl/haltes/101800","1","2"
"101801","101801","Antwerpen deSingel","51.194060","4.403200","https://www.delijn.be/nl/haltes/101801","1","2"
"101802","101802","Antwerpen deSingel","51.195010","4.400440","https://www.delijn.be/nl/haltes/101802","0","2"
"101804","101804","Booischot 't Kapmes","51.037250","4.761040","https://www.delijn.be/nl/haltes/101804","0","2"
"101805","101805","Antwerpen G. Le Grellelaan","51.189980","4.405540","https://www.delijn.be/nl/haltes/101805","0","2"
"101806","101806","Antwerpen G. Le Grellelaan","51.190120","4.405090","https://www.delijn.be/nl/haltes/101806","0","2"
"101808","101808","Putte Peulis KAI","51.037130","4.589840","https://www.delijn.be/nl/haltes/101808","0","2"
"101809","101809","Heist-op-den-Berg Diepenbroekstraatje","51.066040","4.696150","https://www.delijn.be/nl/haltes/101809","0","2"
"101810","101810","Deurne Cruyslei","51.198920","4.458100","https://www.delijn.be/nl/haltes/101810","0","2"
"101811","101811","Hallaar Smederijstraat","51.085130","4.724570","https://www.delijn.be/nl/haltes/101811","0","2"
"101812","101812","Booischot Broekmansstraat","51.041530","4.750430","https://www.delijn.be/nl/haltes/101812","0","2"
"101815","101815","Deurne Cruyslei","51.198830","4.458340","https://www.delijn.be/nl/haltes/101815","0","2"
"101820","101820","Antwerpen Cuperus","51.203280","4.427870","https://www.delijn.be/nl/haltes/101820","0","2"
"101821","101821","Nijlen Tibourschrans","51.158170","4.684100","https://www.delijn.be/nl/haltes/101821","0","2"
"101831","101831","Kessel De Regenboog","51.144050","4.648310","https://www.delijn.be/nl/haltes/101831","0","2"
"101834","101834","Herenthout Nijlensesteenweg","51.144030","4.733560","https://www.delijn.be/nl/haltes/101834","0","2"
"101838","101838","Mortsel Gemeenteplein","51.171040","4.448650","https://www.delijn.be/nl/haltes/101838","1","1"
"101839","101839","Mortsel Gemeenteplein","51.170930","4.448860","https://www.delijn.be/nl/haltes/101839","0","1"
"101841","101841","Turnhout Zwembad Stadspark","51.312340","4.945780","https://www.delijn.be/nl/haltes/101841","0","2"
"101845","101845","Deurne Florent Pauwels","51.205850","4.470460","https://www.delijn.be/nl/haltes/101845","1","1"
"101846","101846","Reet Beekvelden","51.100900","4.417040","https://www.delijn.be/nl/haltes/101846","0","2"
"101847","101847","Reet Beekvelden","51.100830","4.415970","https://www.delijn.be/nl/haltes/101847","0","2"
"101848","101848","Waarloos Hondstraat","51.108310","4.440150","https://www.delijn.be/nl/haltes/101848","0","2"
"101849","101849","Waarloos Hondstraat","51.107000","4.438850","https://www.delijn.be/nl/haltes/101849","0","2"
"101850","101850","Deurne Dassastraat (tijdelijk niet bediend)","51.204810","4.477790","https://www.delijn.be/nl/haltes/101850","0","2"
"101852","101852","Reet Kerk","51.101050","4.414200","https://www.delijn.be/nl/haltes/101852","0","1"
"101855","101855","Antwerpen De Bosschaert","51.184010","4.388500","https://www.delijn.be/nl/haltes/101855","1","2"
"101856","101856","Antwerpen De Bosschaert","51.183870","4.387880","https://www.delijn.be/nl/haltes/101856","0","2"
"101857","101857","Rijkevorsel Kerk","51.349770","4.759690","https://www.delijn.be/nl/haltes/101857","1","1"
"101860","101860","Antwerpen De Bosschaert","51.183740","4.388380","https://www.delijn.be/nl/haltes/101860","0","2"
"101865","101865","Deurne De Brierstraat","51.202500","4.454600","https://www.delijn.be/nl/haltes/101865","0","2"
"101869","101869","Kapellen Kringloopcentrum","51.334780","4.409680","https://www.delijn.be/nl/haltes/101869","0","2"
"101870","101870","Wilrijk De Burletlaan","51.170160","4.425970","https://www.delijn.be/nl/haltes/101870","0","2"
"101871","101871","Kapellen Kringloopcentrum","51.335330","4.409430","https://www.delijn.be/nl/haltes/101871","0","2"
"101872","101872","Kontich Pierstraat","51.120110","4.406730","https://www.delijn.be/nl/haltes/101872","0","2"
"101873","101873","Kontich Pierstraat","51.120370","4.407170","https://www.delijn.be/nl/haltes/101873","0","2"
"101875","101875","Wilrijk De Burletlaan","51.170850","4.426480","https://www.delijn.be/nl/haltes/101875","0","2"
"101878","101878","Schilde Wisselstraat","51.242960","4.588020","https://www.delijn.be/nl/haltes/101878","0","2"
"101880","101880","Berchem Station perron 11","51.201480","4.434310","https://www.delijn.be/nl/haltes/101880","0","1"
"101883","101883","Willebroek AZ Rivierenland Kapelstraat","51.052970","4.357270","https://www.delijn.be/nl/haltes/101883","0","2"
"101884","101884","Willebroek AZ Rivierenland Kapelstraat","51.052850","4.357420","https://www.delijn.be/nl/haltes/101884","0","2"
"101885","101885","Antwerpen De Coninck","51.221720","4.420840","https://www.delijn.be/nl/haltes/101885","0","2"
"101895","101895","Antwerpen De Coninck","51.221590","4.421120","https://www.delijn.be/nl/haltes/101895","0","2"
"101898","101898","Oppuurs Nijvendries","51.058430","4.237740","https://www.delijn.be/nl/haltes/101898","0","2"
"101905","101905","Merksem De Vlaschaardstraat","51.249520","4.433150","https://www.delijn.be/nl/haltes/101905","0","2"
"101907","101907","Mortsel Kerkstraat","51.169950","4.462870","https://www.delijn.be/nl/haltes/101907","0","1"
"101909","101909","Mortsel Maxlaan","51.173490","4.467650","https://www.delijn.be/nl/haltes/101909","0","2"
"101912","101912","Mortsel Meidoorn","51.178810","4.466400","https://www.delijn.be/nl/haltes/101912","0","2"
"101913","101913","Mortsel Meidoorn","51.179330","4.465510","https://www.delijn.be/nl/haltes/101913","0","2"
"101914","101914","Mortsel IJzerenweglei","51.177140","4.459990","https://www.delijn.be/nl/haltes/101914","0","2"
"101915","101915","Mortsel IJzerenweglei","51.177110","4.459710","https://www.delijn.be/nl/haltes/101915","0","2"
"101916","101916","Mortsel Neerhoevelaan","51.171570","4.464390","https://www.delijn.be/nl/haltes/101916","0","2"
"101917","101917","Mortsel Neerhoevelaan","51.171520","4.464560","https://www.delijn.be/nl/haltes/101917","0","2"
"101918","101918","Kessel Vorst","51.139200","4.618740","https://www.delijn.be/nl/haltes/101918","0","2"
"101919","101919","Kessel Vorst","51.139100","4.618880","https://www.delijn.be/nl/haltes/101919","0","2"
"101920","101920","Antwerpen Della Faillelaan","51.183760","4.397580","https://www.delijn.be/nl/haltes/101920","1","2"
"101921","101921","Wijnegem Ganzenweg","51.230280","4.508440","https://www.delijn.be/nl/haltes/101921","0","2"
"101922","101922","Wijnegem Ganzenweg","51.230670","4.507100","https://www.delijn.be/nl/haltes/101922","0","2"
"101925","101925","Edegem Den Eeckhofstraat","51.159970","4.429260","https://www.delijn.be/nl/haltes/101925","0","2"
"101928","101928","Herenthout Heikant","51.131710","4.769910","https://www.delijn.be/nl/haltes/101928","0","2"
"101929","101929","Putte De Bunders","51.041610","4.611890","https://www.delijn.be/nl/haltes/101929","0","2"
"101930","101930","Wilrijk Dennenlaan","51.174060","4.406220","https://www.delijn.be/nl/haltes/101930","0","1"
"101931","101931","Beerse Gemeentehuis","51.314400","4.856290","https://www.delijn.be/nl/haltes/101931","0","2"
"101932","101932","Beerse Gemeentehuis","51.314390","4.856120","https://www.delijn.be/nl/haltes/101932","0","2"
"101933","101933","Retie Plas","51.282530","5.091360","https://www.delijn.be/nl/haltes/101933","0","2"
"101934","101934","Retie Plas","51.282580","5.091530","https://www.delijn.be/nl/haltes/101934","0","2"
"101935","101935","Wilrijk Dennenlaan","51.173820","4.406220","https://www.delijn.be/nl/haltes/101935","1","1"
"101940","101940","Antwerpen deSingel","51.195080","4.403240","https://www.delijn.be/nl/haltes/101940","0","2"
"101941","101941","Westerlo A. Sterckxstraat","51.095270","4.911660","https://www.delijn.be/nl/haltes/101941","0","2"
"101942","101942","Westerlo A. Sterckxstraat","51.095040","4.911940","https://www.delijn.be/nl/haltes/101942","0","2"
"101950","101950","Antwerpen deSingel","51.195210","4.404080","https://www.delijn.be/nl/haltes/101950","0","2"
"101951","101951","Tongerlo Kerk Meulemanslaan","51.104700","4.914800","https://www.delijn.be/nl/haltes/101951","0","2"
"101952","101952","Tongerlo Kerk Meulemanslaan","51.104740","4.915050","https://www.delijn.be/nl/haltes/101952","0","2"
"101955","101955","Antwerpen Desguinlei","51.193710","4.407980","https://www.delijn.be/nl/haltes/101955","0","2"
"101964","101964","Olen Sterrewijzer","51.144750","4.847530","https://www.delijn.be/nl/haltes/101964","0","2"
"101970","101970","Merksem Deurnebaan Albertkanaal","51.238160","4.453910","https://www.delijn.be/nl/haltes/101970","0","1"
"101971","101971","Deurne Deurnebaan Albertkanaal","51.237120","4.454390","https://www.delijn.be/nl/haltes/101971","1","1"
"101972","101972","Morkhoven Koninkrijk","51.119360","4.830700","https://www.delijn.be/nl/haltes/101972","0","2"
"101975","101975","Mortsel Gevaert","51.174300","4.440940","https://www.delijn.be/nl/haltes/101975","0","2"
"101983","101983","Westerlo Parel der Kempen","51.090000","4.920840","https://www.delijn.be/nl/haltes/101983","0","2"
"101985","101985","Berchem Dianalaan","51.195250","4.444500","https://www.delijn.be/nl/haltes/101985","1","2"
"101986","101986","Herentals Kerkstraat","51.175380","4.837180","https://www.delijn.be/nl/haltes/101986","0","2"
"101987","101987","Antwerpen Schijnpoort","51.227593","4.440376","https://www.delijn.be/nl/haltes/101987","1","1"
"101988","101988","Antwerpen Schijnpoort","51.226570","4.442320","https://www.delijn.be/nl/haltes/101988","1","1"
"101989","101989","Wilrijk Hulststraat","51.171630","4.405990","https://www.delijn.be/nl/haltes/101989","0","2"
"101990","101990","Antwerpen Sint-Gummarus","51.225120","4.421980","https://www.delijn.be/nl/haltes/101990","0","2"
"101991","101991","Wilrijk Hulststraat","51.171620","4.405750","https://www.delijn.be/nl/haltes/101991","0","2"
"101992","101992","Berchem Keerlus Groenenhoek","51.200760","4.438670","https://www.delijn.be/nl/haltes/101992","0","2"
"102006","102006","Antwerpen Polderdijkweg","51.250720","4.339470","https://www.delijn.be/nl/haltes/102006","0","2"
"102007","102007","Antwerpen Polderdijkweg","51.250330","4.340730","https://www.delijn.be/nl/haltes/102007","0","2"
"102010","102010","Edegem Elsbos","51.150000","4.452020","https://www.delijn.be/nl/haltes/102010","0","2"
"102011","102011","Schelle Wullebeekstraat","51.115560","4.325150","https://www.delijn.be/nl/haltes/102011","0","2"
"102012","102012","Schelle Wullebeekstraat","51.115620","4.324990","https://www.delijn.be/nl/haltes/102012","0","2"
"102013","102013","Niel Maria Boodschap","51.108790","4.321370","https://www.delijn.be/nl/haltes/102013","1","2"
"102014","102014","Schelle Kapelstraat","51.123800","4.337360","https://www.delijn.be/nl/haltes/102014","0","2"
"102016","102016","Merksem Oudebareel","51.246740","4.450540","https://www.delijn.be/nl/haltes/102016","1","1"
"102018","102018","Brasschaat Miksebeekstraat","51.297270","4.515870","https://www.delijn.be/nl/haltes/102018","0","2"
"102019","102019","Brasschaat De Golf","51.296530","4.516530","https://www.delijn.be/nl/haltes/102019","0","2"
"102021","102021","Brasschaat Meeslaan","51.295850","4.514240","https://www.delijn.be/nl/haltes/102021","0","2"
"102022","102022","Brasschaat Meeslaan","51.295560","4.513290","https://www.delijn.be/nl/haltes/102022","0","2"
"102023","102023","Brasschaat Begraafplaats","51.292250","4.505220","https://www.delijn.be/nl/haltes/102023","0","2"
"102024","102024","Brasschaat Begraafplaats","51.292120","4.504610","https://www.delijn.be/nl/haltes/102024","0","2"
"102025","102025","Merksem Oudebareel","51.246720","4.450280","https://www.delijn.be/nl/haltes/102025","1","1"
"102030","102030","Borgerhout Luitenant Lippenslaan","51.208660","4.448880","https://www.delijn.be/nl/haltes/102030","0","2"
"102035","102035","Wilrijk Doornstraat","51.159650","4.399980","https://www.delijn.be/nl/haltes/102035","0","2"
"102040","102040","Wilrijk Doornstraat","51.159980","4.399700","https://www.delijn.be/nl/haltes/102040","1","2"
"102042","102042","Sint-Amands Cuyteghemhoeve","51.041280","4.194000","https://www.delijn.be/nl/haltes/102042","0","2"
"102050","102050","Hoboken Draaiboom","51.178540","4.360580","https://www.delijn.be/nl/haltes/102050","0","2"
"102054","102054","Antwerpen Felixarchief","51.227216","4.408215","https://www.delijn.be/nl/haltes/102054","0","2"
"102056","102056","Berchem Draakplaats","51.205600","4.432090","https://www.delijn.be/nl/haltes/102056","0","2"
"102057","102057","Boom Van Arteveldenstraat","51.101120","4.376420","https://www.delijn.be/nl/haltes/102057","0","2"
"102058","102058","Boom Van Arteveldenstraat","51.101120","4.377250","https://www.delijn.be/nl/haltes/102058","0","2"
"102060","102060","Berchem Draakplaats","51.205940","4.432950","https://www.delijn.be/nl/haltes/102060","0","2"
"102061","102061","Lier Baron Opsomerlaan","51.135050","4.563760","https://www.delijn.be/nl/haltes/102061","0","2"
"102071","102071","Lier Heilig Hartziekenhuis","51.131470","4.565190","https://www.delijn.be/nl/haltes/102071","0","2"
"102072","102072","Lier Heilig Hartziekenhuis","51.131450","4.564510","https://www.delijn.be/nl/haltes/102072","0","2"
"102073","102073","Lier Baron Opsomerlaan","51.134610","4.563540","https://www.delijn.be/nl/haltes/102073","0","2"
"102074","102074","Onze-Lieve-Vrouw-Waver Bosstraat","51.072350","4.574160","https://www.delijn.be/nl/haltes/102074","0","2"
"102075","102075","Berchem Driekoningen","51.195990","4.418450","https://www.delijn.be/nl/haltes/102075","1","1"
"102076","102076","Niel Gemeentehuis","51.109590","4.326350","https://www.delijn.be/nl/haltes/102076","0","1"
"102077","102077","Niel Gemeentehuis","51.109520","4.327110","https://www.delijn.be/nl/haltes/102077","1","1"
"102078","102078","Niel Edward Claessenslaan","51.113060","4.326130","https://www.delijn.be/nl/haltes/102078","0","2"
"102079","102079","Niel Edward Claessenslaan","51.113110","4.326250","https://www.delijn.be/nl/haltes/102079","0","2"
"102081","102081","Kapellen Oude Bergsebaan","51.307150","4.441390","https://www.delijn.be/nl/haltes/102081","0","2"
"102082","102082","Kapellen Oude Bergsebaan","51.307250","4.441320","https://www.delijn.be/nl/haltes/102082","0","2"
"102085","102085","Borgerhout Drink","51.214810","4.434980","https://www.delijn.be/nl/haltes/102085","0","1"
"102086","102086","Sint-Katelijne-Waver Zonstraat","51.070540","4.523860","https://www.delijn.be/nl/haltes/102086","0","2"
"102087","102087","Sint-Katelijne-Waver Zonstraat","51.070430","4.523330","https://www.delijn.be/nl/haltes/102087","0","2"
"102088","102088","Reet Hoge Meentochtstraat","51.091110","4.420380","https://www.delijn.be/nl/haltes/102088","0","2"
"102089","102089","Reet Hoge Meentochtstraat","51.091220","4.420500","https://www.delijn.be/nl/haltes/102089","0","2"
"102090","102090","Borgerhout Drink","51.215070","4.434250","https://www.delijn.be/nl/haltes/102090","0","1"
"102091","102091","Reet Morenhoevestraat","51.100910","4.429320","https://www.delijn.be/nl/haltes/102091","1","2"
"102092","102092","Reet Morenhoevestraat","51.100980","4.429200","https://www.delijn.be/nl/haltes/102092","0","2"
"102093","102093","Brasschaat Buitenhof","51.307650","4.540006","https://www.delijn.be/nl/haltes/102093","0","2"
"102109","102109","Turnhout Guldensporenlei","51.325320","4.937990","https://www.delijn.be/nl/haltes/102109","0","2"
"102112","102112","Berchem Station perron 2","51.201400","4.433940","https://www.delijn.be/nl/haltes/102112","0","1"
"102113","102113","Berchem Station perron 23","51.201480","4.433730","https://www.delijn.be/nl/haltes/102113","0","1"
"102120","102120","Merksem F. Adriaenssensstraat","51.255170","4.440600","https://www.delijn.be/nl/haltes/102120","0","2"
"102123","102123","Heist-op-den-Berg Waterlees","51.057840","4.699960","https://www.delijn.be/nl/haltes/102123","0","2"
"102125","102125","Wilrijk Eglantierlaan","51.182520","4.394540","https://www.delijn.be/nl/haltes/102125","0","2"
"102131","102131","Oelegem Rundvoortstraat","51.213890","4.591590","https://www.delijn.be/nl/haltes/102131","0","2"
"102139","102139","Hoboken Jan Van de Wouwer (tijdelijk afgeschaft)","51.180950","4.366460","https://www.delijn.be/nl/haltes/102139","0","2"
"102145","102145","Deurne de Villegasplein","51.199394","4.468402","https://www.delijn.be/nl/haltes/102145","0","2"
"102150","102150","Deurne de Villegasplein","51.199456","4.468527","https://www.delijn.be/nl/haltes/102150","1","2"
"102152","102152","Mortsel Molenlei","51.164620","4.454770","https://www.delijn.be/nl/haltes/102152","0","2"
"102153","102153","Mortsel Molenlei","51.164380","4.455400","https://www.delijn.be/nl/haltes/102153","0","2"
"102162","102162","Antwerpen Kastelweg","51.244050","4.360430","https://www.delijn.be/nl/haltes/102162","0","2"
"102163","102163","Antwerpen Kastelweg","51.243960","4.360490","https://www.delijn.be/nl/haltes/102163","0","2"
"102164","102164","Antwerpen Katoennatie","51.243940","4.375560","https://www.delijn.be/nl/haltes/102164","0","2"
"102166","102166","Antwerpen Katoennatie","51.243820","4.376150","https://www.delijn.be/nl/haltes/102166","0","2"
"102170","102170","Deurne Eksterlaar","51.202540","4.462670","https://www.delijn.be/nl/haltes/102170","1","2"
"102172","102172","Beerzel Augustijnenlei","51.058070","4.653140","https://www.delijn.be/nl/haltes/102172","0","2"
"102174","102174","Heultje Hof Van Eden","51.079200","4.818680","https://www.delijn.be/nl/haltes/102174","0","2"
"102178","102178","Antwerpen Station Luchtbal","51.244830","4.424170","https://www.delijn.be/nl/haltes/102178","1","1"
"102179","102179","Antwerpen P+R Olympiade","51.184020","4.391930","https://www.delijn.be/nl/haltes/102179","1","1"
"102181","102181","Antwerpen Pacificatie","51.206120","4.389850","https://www.delijn.be/nl/haltes/102181","1","2"
"102182","102182","Antwerpen Pacificatie","51.206190","4.390050","https://www.delijn.be/nl/haltes/102182","1","2"
"102185","102185","Berchem Elisabethlaan","51.187500","4.422360","https://www.delijn.be/nl/haltes/102185","0","2"
"102186","102186","Essen College","51.440340","4.432790","https://www.delijn.be/nl/haltes/102186","0","2"
"102191","102191","Essen Noordeneind","51.449780","4.425360","https://www.delijn.be/nl/haltes/102191","0","2"
"102192","102192","Essen Station","51.462470","4.451840","https://www.delijn.be/nl/haltes/102192","0","1"
"102193","102193","Essen Station","51.463510","4.451310","https://www.delijn.be/nl/haltes/102193","0","1"
"102194","102194","Essen Achterstraat","51.430770","4.461390","https://www.delijn.be/nl/haltes/102194","0","2"
"102196","102196","Essen Achterstraat","51.430510","4.461260","https://www.delijn.be/nl/haltes/102196","0","2"
"102197","102197","Kapellen Harklaan","51.349780","4.406141","https://www.delijn.be/nl/haltes/102197","0","2"
"102198","102198","Kapellen Harklaan","51.349973","4.406353","https://www.delijn.be/nl/haltes/102198","0","2"
"102199","102199","Wuustwezel Stella Matutina","51.393660","4.598650","https://www.delijn.be/nl/haltes/102199","0","2"
"102200","102200","Edegem Elsbos","51.149770","4.451020","https://www.delijn.be/nl/haltes/102200","0","2"
"102201","102201","Wuustwezel Sterbos","51.393579","4.566107","https://www.delijn.be/nl/haltes/102201","0","2"
"102202","102202","Wuustwezel Sterbos","51.393464","4.566012","https://www.delijn.be/nl/haltes/102202","0","2"
"102203","102203","Loenhout Kerk","51.398030","4.643590","https://www.delijn.be/nl/haltes/102203","0","1"
"102204","102204","Loenhout Begraafplaats","51.393660","4.644300","https://www.delijn.be/nl/haltes/102204","0","2"
"102205","102205","Hoboken Dr. Coenstraat","51.176440","4.353140","https://www.delijn.be/nl/haltes/102205","0","2"
"102206","102206","Loenhout Begraafplaats","51.393640","4.644130","https://www.delijn.be/nl/haltes/102206","0","2"
"102207","102207","Westmalle Rerum Novarumlaan","51.298720","4.683270","https://www.delijn.be/nl/haltes/102207","0","2"
"102208","102208","Westmalle Rerum Novarumlaan","51.298580","4.683280","https://www.delijn.be/nl/haltes/102208","0","2"
"102209","102209","Westmalle Mariënhove","51.303000","4.677640","https://www.delijn.be/nl/haltes/102209","0","2"
"102210","102210","Merksem F. Adriaenssensstraat","51.255130","4.442330","https://www.delijn.be/nl/haltes/102210","0","2"
"102211","102211","Westmalle Mariënhove","51.302800","4.677610","https://www.delijn.be/nl/haltes/102211","0","2"
"102212","102212","Brecht Station Noorderkempen per 1","51.357610","4.632610","https://www.delijn.be/nl/haltes/102212","1","1"
"102213","102213","Brecht Station Noorderkempen per 2","51.357560","4.632530","https://www.delijn.be/nl/haltes/102213","1","1"
"102214","102214","Brecht Station Noorderkempen per 3","51.357460","4.632450","https://www.delijn.be/nl/haltes/102214","1","1"
"102216","102216","Sint-Lenaarts J. Cardijnlaan","51.349210","4.674790","https://www.delijn.be/nl/haltes/102216","1","2"
"102217","102217","Sint-Lenaarts Vondel","51.352550","4.679610","https://www.delijn.be/nl/haltes/102217","0","2"
"102218","102218","Sint-Lenaarts Vondel","51.352380","4.679550","https://www.delijn.be/nl/haltes/102218","0","2"
"102219","102219","Sint-Lenaarts Fruithoflaan","51.353690","4.685220","https://www.delijn.be/nl/haltes/102219","0","2"
"102221","102221","Sint-Lenaarts Fruithoflaan","51.353590","4.685040","https://www.delijn.be/nl/haltes/102221","0","2"
"102222","102222","Sint-Lenaarts Kloosterstraat","51.356480","4.693470","https://www.delijn.be/nl/haltes/102222","0","2"
"102223","102223","Sint-Lenaarts Kloosterstraat","51.355090","4.692260","https://www.delijn.be/nl/haltes/102223","0","2"
"102224","102224","Brecht Oude Veldstraat","51.359100","4.641790","https://www.delijn.be/nl/haltes/102224","0","2"
"102225","102225","Deurne Craeybeckx","51.226180","4.458500","https://www.delijn.be/nl/haltes/102225","0","2"
"102226","102226","Brecht Oude Veldstraat","51.359300","4.641710","https://www.delijn.be/nl/haltes/102226","0","2"
"102227","102227","Brecht Wemersweg","51.354250","4.641070","https://www.delijn.be/nl/haltes/102227","0","2"
"102228","102228","Brecht Wemersweg","51.354430","4.640940","https://www.delijn.be/nl/haltes/102228","0","2"
"102229","102229","Brecht Gemeentehuis","51.347710","4.641310","https://www.delijn.be/nl/haltes/102229","0","2"
"102230","102230","Deurne Craeybeckx","51.226360","4.460270","https://www.delijn.be/nl/haltes/102230","0","2"
"102231","102231","Brecht Gemeentehuis","51.347910","4.640900","https://www.delijn.be/nl/haltes/102231","0","2"
"102232","102232","Hoogstraten Brandweer","51.388360","4.746100","https://www.delijn.be/nl/haltes/102232","0","2"
"102233","102233","Hoogstraten Brandweer","51.388310","4.746380","https://www.delijn.be/nl/haltes/102233","1","2"
"102235","102235","Berchem De Merode","51.198180","4.416240","https://www.delijn.be/nl/haltes/102235","1","2"
"102236","102236","Kalmthout Gitok 2","51.387480","4.472730","https://www.delijn.be/nl/haltes/102236","0","2"
"102237","102237","Kalmthout Korte Heuvelstraat","51.388420","4.457350","https://www.delijn.be/nl/haltes/102237","0","2"
"102238","102238","Kalmthout Dorpsstraat","51.394580","4.474380","https://www.delijn.be/nl/haltes/102238","0","2"
"102239","102239","Kalmthout Dorpsstraat","51.394540","4.474200","https://www.delijn.be/nl/haltes/102239","0","2"
"102240","102240","Antwerpen F. Maas","51.254320","4.388450","https://www.delijn.be/nl/haltes/102240","0","2"
"102241","102241","Achterbroek Leyterstraat","51.398229","4.500180","https://www.delijn.be/nl/haltes/102241","1","2"
"102242","102242","Achterbroek Leyterstraat","51.398206","4.500003","https://www.delijn.be/nl/haltes/102242","1","2"
"102243","102243","Achterbroek Zandstraat","51.392720","4.501630","https://www.delijn.be/nl/haltes/102243","0","2"
"102244","102244","Achterbroek Zandstraat","51.392800","4.501420","https://www.delijn.be/nl/haltes/102244","0","2"
"102245","102245","Antwerpen F. Maas","51.255320","4.388650","https://www.delijn.be/nl/haltes/102245","0","2"
"102246","102246","Achterbroek K. Van Thillostraat","51.386800","4.503220","https://www.delijn.be/nl/haltes/102246","0","2"
"102247","102247","Achterbroek K. Van Thillostraat","51.386410","4.503080","https://www.delijn.be/nl/haltes/102247","0","2"
"102248","102248","Nieuwmoer Kerkstraat","51.432380","4.518280","https://www.delijn.be/nl/haltes/102248","0","1"
"102249","102249","Nieuwmoer Kerkstraat","51.432370","4.518120","https://www.delijn.be/nl/haltes/102249","0","1"
"102251","102251","Herselt Halfmaanstraat","51.051580","4.867550","https://www.delijn.be/nl/haltes/102251","0","2"
"102252","102252","Herselt Halfmaanstraat","51.051590","4.867910","https://www.delijn.be/nl/haltes/102252","0","2"
"102253","102253","Westmeerbeek Groenstraat","51.058460","4.841240","https://www.delijn.be/nl/haltes/102253","0","2"
"102254","102254","Westmeerbeek Groenstraat","51.058510","4.840930","https://www.delijn.be/nl/haltes/102254","0","2"
"102283","102283","Aartselaar Kastanjelaan","51.110360","4.376850","https://www.delijn.be/nl/haltes/102283","0","2"
"102284","102284","Reet Kastanjelaan","51.110240","4.376300","https://www.delijn.be/nl/haltes/102284","0","2"
"102285","102285","Brecht Station Noorderkempen per 4","51.357400","4.632330","https://www.delijn.be/nl/haltes/102285","1","1"
"102286","102286","Brecht Station Noorderkempen per 5","51.357310","4.632300","https://www.delijn.be/nl/haltes/102286","1","1"
"102287","102287","Westerlo Stadion","51.092870","4.928360","https://www.delijn.be/nl/haltes/102287","1","2"
"102288","102288","Westerlo Stadion","51.092701","4.928256","https://www.delijn.be/nl/haltes/102288","1","2"
"102289","102289","Baarle-Nassau Zigraeck","51.418720","4.851430","https://www.delijn.be/nl/haltes/102289","0","2"
"102291","102291","Baarle-Nassau Zigraeck","51.418740","4.851320","https://www.delijn.be/nl/haltes/102291","0","2"
"102292","102292","Heultje Hoog Heultje","51.072860","4.834270","https://www.delijn.be/nl/haltes/102292","0","2"
"102293","102293","Booischot Heiakker","51.026120","4.754100","https://www.delijn.be/nl/haltes/102293","0","2"
"102296","102296","Boechout P+R Boechout","51.169020","4.493210","https://www.delijn.be/nl/haltes/102296","1","1"
"102297","102297","Boechout P+R Boechout","51.168820","4.493450","https://www.delijn.be/nl/haltes/102297","1","1"
"102298","102298","Boechout P+R Boechout","51.168560","4.493140","https://www.delijn.be/nl/haltes/102298","1","1"
"102300","102300","Wilrijk F. Van Dunlaan","51.172350","4.425720","https://www.delijn.be/nl/haltes/102300","1","1"
"102301","102301","Sint-Katelijne-Waver Station","51.069280","4.492050","https://www.delijn.be/nl/haltes/102301","0","1"
"102302","102302","Sint-Katelijne-Waver Station","51.069230","4.492370","https://www.delijn.be/nl/haltes/102302","0","1"
"102305","102305","Wilrijk F. Van Dunlaan","51.172350","4.426160","https://www.delijn.be/nl/haltes/102305","1","1"
"102308","102308","Hoogstraten Kela","51.386540","4.735940","https://www.delijn.be/nl/haltes/102308","0","2"
"102309","102309","Hoogstraten Kela","51.386450","4.736220","https://www.delijn.be/nl/haltes/102309","0","2"
"102312","102312","Beerse Busselen","51.325450","4.855020","https://www.delijn.be/nl/haltes/102312","0","2"
"102313","102313","Antwerpen Centraal Station perron 11","51.216690","4.420420","https://www.delijn.be/nl/haltes/102313","1","1"
"102314","102314","Antwerpen Lange Kievitstraat","51.213260","4.420760","https://www.delijn.be/nl/haltes/102314","1","1"
"102319","102319","Vosselaar Nachtegaalstraat","51.303990","4.906479","https://www.delijn.be/nl/haltes/102319","0","2"
"102320","102320","Berchem Driekoningen","51.195430","4.419050","https://www.delijn.be/nl/haltes/102320","1","1"
"102322","102322","Grobbendonk Dorp","51.190130","4.738690","https://www.delijn.be/nl/haltes/102322","0","1"
"102323","102323","Essen Hoek","51.446510","4.412240","https://www.delijn.be/nl/haltes/102323","0","2"
"102330","102330","Antwerpen Felixarchief","51.226860","4.409050","https://www.delijn.be/nl/haltes/102330","1","2"
"102335","102335","Mortsel Floralaan","51.167230","4.452820","https://www.delijn.be/nl/haltes/102335","0","1"
"102340","102340","Antwerpen Koninklijkelaan","51.185020","4.420690","https://www.delijn.be/nl/haltes/102340","0","2"
"102345","102345","Berchem Floraliënlaan","51.183170","4.423410","https://www.delijn.be/nl/haltes/102345","1","2"
"102350","102350","Borgerhout Hof ter Lo","51.217840","4.448210","https://www.delijn.be/nl/haltes/102350","1","2"
"102355","102355","Borgerhout Hof ter Lo","51.216930","4.446700","https://www.delijn.be/nl/haltes/102355","1","2"
"102370","102370","Antwerpen Fransenplaats","51.200770","4.398250","https://www.delijn.be/nl/haltes/102370","1","2"
"102373","102373","Berchem A. Grisarstraat","51.199980","4.420180","https://www.delijn.be/nl/haltes/102373","0","2"
"102375","102375","Antwerpen Fransenplaats","51.200610","4.398600","https://www.delijn.be/nl/haltes/102375","0","2"
"102380","102380","Berchem Fruithoflaan","51.180300","4.432830","https://www.delijn.be/nl/haltes/102380","0","1"
"102381","102381","Baarle-Nassau Schrans","51.417750","4.773340","https://www.delijn.be/nl/haltes/102381","0","2"
"102382","102382","Baarle-Nassau Schrans","51.417660","4.773280","https://www.delijn.be/nl/haltes/102382","0","2"
"102383","102383","Deurne Ertbrugge","51.222180","4.494220","https://www.delijn.be/nl/haltes/102383","0","1"
"102384","102384","Vosselaar Nachtegaalstraat","51.303910","4.906680","https://www.delijn.be/nl/haltes/102384","0","2"
"102385","102385","Berchem Jos Ratinckxstraat","51.184570","4.441860","https://www.delijn.be/nl/haltes/102385","0","2"
"102389","102389","Bevel Emiliushoeve","51.138410","4.703960","https://www.delijn.be/nl/haltes/102389","0","2"
"102391","102391","Kessel Groeshoeve","51.153850","4.623960","https://www.delijn.be/nl/haltes/102391","0","2"
"102392","102392","Nijlen Breugelhoevestraat","51.165310","4.654850","https://www.delijn.be/nl/haltes/102392","0","2"
"102395","102395","Mortsel Vredebaan","51.172960","4.445160","https://www.delijn.be/nl/haltes/102395","1","1"
"102396","102396","Herenthout Schoetersstraat","51.133030","4.756980","https://www.delijn.be/nl/haltes/102396","0","2"
"102397","102397","Vosselaar Lindenhoeve","51.318700","4.875630","https://www.delijn.be/nl/haltes/102397","0","2"
"102398","102398","Vosselaar Lindenhoeve","51.318600","4.875520","https://www.delijn.be/nl/haltes/102398","0","2"
"102399","102399","Merksem Zwaantjeslei","51.261640","4.451210","https://www.delijn.be/nl/haltes/102399","1","2"
"102400","102400","Edegem Baron De Celleslaan","51.155680","4.434530","https://www.delijn.be/nl/haltes/102400","0","2"
"102401","102401","Kalmthout Withoeflei","51.359740","4.462570","https://www.delijn.be/nl/haltes/102401","0","2"
"102405","102405","Merksem Bredabaan","51.240790","4.436440","https://www.delijn.be/nl/haltes/102405","0","2"
"102410","102410","Deurne Gallifortlei","51.220470","4.459980","https://www.delijn.be/nl/haltes/102410","1","1"
"102415","102415","Deurne Gallifortlei","51.220330","4.459130","https://www.delijn.be/nl/haltes/102415","1","1"
"102417","102417","Hoogstraten Veilingstraat","51.390720","4.752580","https://www.delijn.be/nl/haltes/102417","0","2"
"102418","102418","Hoogstraten Veilingstraat","51.390530","4.752000","https://www.delijn.be/nl/haltes/102418","0","2"
"102419","102419","Beerse Kattespoelstraat","51.319070","4.868030","https://www.delijn.be/nl/haltes/102419","0","2"
"102420","102420","Antwerpen Gasstraat","51.226050","4.425160","https://www.delijn.be/nl/haltes/102420","0","2"
"102421","102421","Beerse Kattespoelstraat","51.319160","4.868130","https://www.delijn.be/nl/haltes/102421","0","2"
"102423","102423","Kessel Iona-Instituut","51.138930","4.659770","https://www.delijn.be/nl/haltes/102423","0","2"
"102425","102425","Antwerpen Gasstraat","51.225970","4.424330","https://www.delijn.be/nl/haltes/102425","0","2"
"102427","102427","Turnhout Oud-Strijderslaan","51.314110","4.927580","https://www.delijn.be/nl/haltes/102427","0","2"
"102428","102428","Turnhout Oud-Strijderslaan","51.314130","4.927350","https://www.delijn.be/nl/haltes/102428","1","2"
"102430","102430","Hoboken Sportcentrum Sorghvliedt","51.167470","4.354600","https://www.delijn.be/nl/haltes/102430","1","2"
"102435","102435","Hoboken Sportcentrum Sorghvliedt","51.167270","4.353960","https://www.delijn.be/nl/haltes/102435","1","2"
"102436","102436","Puurs Kapelstraat","51.081900","4.313420","https://www.delijn.be/nl/haltes/102436","0","2"
"102441","102441","Bornem Industrieweg","51.088880","4.257490","https://www.delijn.be/nl/haltes/102441","0","2"
"102443","102443","Deurne Van Den Hautelei","51.202630","4.467640","https://www.delijn.be/nl/haltes/102443","1","2"
"102444","102444","Deurne Van Den Hautelei","51.202520","4.467730","https://www.delijn.be/nl/haltes/102444","1","2"
"102445","102445","Mortsel Gemeenteplein","51.169730","4.450140","https://www.delijn.be/nl/haltes/102445","0","1"
"102446","102446","Deurne Florent Pauwels","51.205480","4.471010","https://www.delijn.be/nl/haltes/102446","1","1"
"102447","102447","Deurne Eksterlaar","51.202450","4.462750","https://www.delijn.be/nl/haltes/102447","1","2"
"102448","102448","Merksem De Brem","51.259820","4.449680","https://www.delijn.be/nl/haltes/102448","0","2"
"102450","102450","Mortsel Terminus","51.170300","4.450460","https://www.delijn.be/nl/haltes/102450","0","1"
"102453","102453","Westerlo Guido Gezellestraat","51.085190","4.906720","https://www.delijn.be/nl/haltes/102453","0","2"
"102454","102454","Westerlo Guido Gezellestraat","51.085100","4.906830","https://www.delijn.be/nl/haltes/102454","0","2"
"102456","102456","Wezel Sint-Jozef Apotheek","51.194790","5.213710","https://www.delijn.be/nl/haltes/102456","0","2"
"102457","102457","Wezel Sint-Jozef Apotheek","51.194800","5.213110","https://www.delijn.be/nl/haltes/102457","0","2"
"102460","102460","Antwerpen Centraal Station perron 3","51.219050","4.421050","https://www.delijn.be/nl/haltes/102460","1","1"
"102461","102461","Balen Neetlaan","51.187310","5.226400","https://www.delijn.be/nl/haltes/102461","0","2"
"102462","102462","Balen Neetlaan","51.188170","5.226460","https://www.delijn.be/nl/haltes/102462","0","2"
"102463","102463","Wezel Nethehof","51.184730","5.224440","https://www.delijn.be/nl/haltes/102463","0","2"
"102464","102464","Wezel Nethehof","51.184720","5.223730","https://www.delijn.be/nl/haltes/102464","0","2"
"102466","102466","Keiheuvel Ringlaan","51.183690","5.215250","https://www.delijn.be/nl/haltes/102466","0","2"
"102467","102467","Keiheuvel Ringlaan","51.183630","5.215400","https://www.delijn.be/nl/haltes/102467","0","2"
"102470","102470","Antwerpen Generaal Cabrastraat","51.191220","4.392970","https://www.delijn.be/nl/haltes/102470","0","2"
"102471","102471","Gerheide Kapel","51.181070","5.201370","https://www.delijn.be/nl/haltes/102471","0","2"
"102472","102472","Gerheide Kapel","51.181140","5.200830","https://www.delijn.be/nl/haltes/102472","0","2"
"102473","102473","Balen Breden Els","51.180447","5.193518","https://www.delijn.be/nl/haltes/102473","0","2"
"102474","102474","Balen Breden Els","51.180300","5.192130","https://www.delijn.be/nl/haltes/102474","0","2"
"102477","102477","Balen Wagenstraat","51.178880","5.184130","https://www.delijn.be/nl/haltes/102477","0","2"
"102478","102478","Balen Wagenstraat","51.178890","5.183300","https://www.delijn.be/nl/haltes/102478","0","2"
"102479","102479","Balen Rijsberg","51.175930","5.172210","https://www.delijn.be/nl/haltes/102479","0","2"
"102481","102481","Balen Markt","51.170770","5.168020","https://www.delijn.be/nl/haltes/102481","0","2"
"102482","102482","Balen Rijsberg","51.175610","5.171770","https://www.delijn.be/nl/haltes/102482","0","2"
"102484","102484","Balen Markt","51.170890","5.167850","https://www.delijn.be/nl/haltes/102484","0","2"
"102489","102489","Balen Hoolsterberg","51.159870","5.165890","https://www.delijn.be/nl/haltes/102489","0","2"
"102491","102491","Balen Hoolst","51.153960","5.157030","https://www.delijn.be/nl/haltes/102491","0","2"
"102492","102492","Balen Hoolsterberg","51.160170","5.165880","https://www.delijn.be/nl/haltes/102492","0","2"
"102493","102493","Hulsen Sint-Hubertuslaan","51.152460","5.132190","https://www.delijn.be/nl/haltes/102493","0","2"
"102494","102494","Balen Hoolst","51.154120","5.157200","https://www.delijn.be/nl/haltes/102494","0","2"
"102500","102500","Antwerpen Kasteelplein","51.209120","4.403250","https://www.delijn.be/nl/haltes/102500","0","2"
"102501","102501","Hulsen Sint-Hubertus","51.146830","5.112190","https://www.delijn.be/nl/haltes/102501","0","2"
"102504","102504","Hulsen 't Ravotterke","51.147030","5.118360","https://www.delijn.be/nl/haltes/102504","0","2"
"102505","102505","Antwerpen Kasteelplein","51.208750","4.401840","https://www.delijn.be/nl/haltes/102505","0","2"
"102511","102511","Meerhout Kabien","51.127620","5.070890","https://www.delijn.be/nl/haltes/102511","0","2"
"102513","102513","Zittaart Smid","51.123490","5.061700","https://www.delijn.be/nl/haltes/102513","0","2"
"102514","102514","Meerhout Kabien","51.127410","5.070340","https://www.delijn.be/nl/haltes/102514","0","2"
"102515","102515","Deurne Bosuilplein","51.229690","4.467840","https://www.delijn.be/nl/haltes/102515","1","2"
"102516","102516","Zittaart Smid","51.123680","5.062000","https://www.delijn.be/nl/haltes/102516","0","2"
"102520","102520","Deurne Bosuilplein","51.230250","4.467540","https://www.delijn.be/nl/haltes/102520","0","2"
"102525","102525","Klein Vorst Kerk","51.085370","5.069740","https://www.delijn.be/nl/haltes/102525","0","1"
"102526","102526","Klein Vorst Kerk","51.085450","5.069880","https://www.delijn.be/nl/haltes/102526","0","1"
"102527","102527","Vorst Huis Eeckhoudt","51.085020","5.063920","https://www.delijn.be/nl/haltes/102527","0","2"
"102528","102528","Vorst Huis Eeckhoudt","51.085130","5.063900","https://www.delijn.be/nl/haltes/102528","0","2"
"102529","102529","Vorst Zijstraat","51.081910","5.049780","https://www.delijn.be/nl/haltes/102529","0","2"
"102531","102531","Vorst Borgtstraat","51.079820","5.040250","https://www.delijn.be/nl/haltes/102531","0","2"
"102532","102532","Vorst Zijstraat","51.082080","5.049910","https://www.delijn.be/nl/haltes/102532","0","2"
"102533","102533","Vorst Smissestraat","51.080170","5.031820","https://www.delijn.be/nl/haltes/102533","0","2"
"102534","102534","Vorst Borgtstraat","51.079918","5.040145","https://www.delijn.be/nl/haltes/102534","0","2"
"102535","102535","Antwerpen Tropisch Instituut","51.212990","4.397680","https://www.delijn.be/nl/haltes/102535","1","2"
"102536","102536","Vorst Smissestraat","51.080300","5.031800","https://www.delijn.be/nl/haltes/102536","0","2"
"102540","102540","Antwerpen Tropisch Instituut","51.212190","4.397140","https://www.delijn.be/nl/haltes/102540","1","2"
"102541","102541","Vorst Rode Kruisstraat","51.083700","5.018380","https://www.delijn.be/nl/haltes/102541","0","2"
"102543","102543","Eindhout Paviljoen","51.093376","5.014174","https://www.delijn.be/nl/haltes/102543","0","2"
"102544","102544","Vorst Rode Kruisstraat","51.084230","5.018570","https://www.delijn.be/nl/haltes/102544","1","2"
"102546","102546","Eindhout Paviljoen","51.093590","5.014280","https://www.delijn.be/nl/haltes/102546","0","2"
"102547","102547","Eindhout Sint-Jozefstraat","51.098790","5.009330","https://www.delijn.be/nl/haltes/102547","0","2"
"102548","102548","Eindhout Sint-Jozefstraat","51.098687","5.009593","https://www.delijn.be/nl/haltes/102548","0","2"
"102549","102549","Eindhout Dorp","51.106130","5.005320","https://www.delijn.be/nl/haltes/102549","1","2"
"102550","102550","Eindhout Dorp","51.106030","5.005270","https://www.delijn.be/nl/haltes/102550","1","2"
"102555","102555","Berchem Groenenhoek","51.199600","4.439810","https://www.delijn.be/nl/haltes/102555","0","2"
"102560","102560","Berchem Groenenhoek","51.199690","4.439460","https://www.delijn.be/nl/haltes/102560","0","2"
"102561","102561","Meerhout Markthalte","51.132380","5.077680","https://www.delijn.be/nl/haltes/102561","0","2"
"102562","102562","Meerhout Markthalte","51.132470","5.077520","https://www.delijn.be/nl/haltes/102562","0","2"
"102565","102565","Borgerhout Gitschotellei","51.200450","4.450250","https://www.delijn.be/nl/haltes/102565","1","1"
"102570","102570","Borgerhout Gitschotellei","51.200418","4.450094","https://www.delijn.be/nl/haltes/102570","0","1"
"102573","102573","Lichtaart Krokuslaan","51.227710","4.908550","https://www.delijn.be/nl/haltes/102573","0","2"
"102577","102577","Mol Zilvermeerhaven","51.227970","5.172980","https://www.delijn.be/nl/haltes/102577","0","2"
"102578","102578","Mol Zilvermeerhaven","51.228050","5.172890","https://www.delijn.be/nl/haltes/102578","0","2"
"102581","102581","Wilrijk Goudenregenlaan","51.175130","4.399510","https://www.delijn.be/nl/haltes/102581","0","2"
"102582","102582","Wilrijk Goudenregenlaan","51.174900","4.400210","https://www.delijn.be/nl/haltes/102582","0","2"
"102585","102585","Antwerpen Gounod","51.205760","4.410230","https://www.delijn.be/nl/haltes/102585","1","2"
"102590","102590","Antwerpen Gounod","51.205530","4.410110","https://www.delijn.be/nl/haltes/102590","0","2"
"102593","102593","Puurs Keulendam","51.078860","4.276380","https://www.delijn.be/nl/haltes/102593","0","2"
"102594","102594","Puurs Keulendam","51.078760","4.276300","https://www.delijn.be/nl/haltes/102594","0","2"
"102595","102595","Edegem Den Eeckhofstraat","51.161450","4.428990","https://www.delijn.be/nl/haltes/102595","0","2"
"102600","102600","Merksem Ryenlanddreef","51.253590","4.435100","https://www.delijn.be/nl/haltes/102600","1","2"
"102601","102601","Hingene Het Zand","51.102710","4.261740","https://www.delijn.be/nl/haltes/102601","0","2"
"102602","102602","Hingene Het Zand","51.102660","4.261820","https://www.delijn.be/nl/haltes/102602","0","2"
"102604","102604","Sint-Lenaarts Bremstraat","51.336060","4.662020","https://www.delijn.be/nl/haltes/102604","0","1"
"102605","102605","Antwerpen Grens Kiel","51.187080","4.375690","https://www.delijn.be/nl/haltes/102605","0","2"
"102606","102606","Sint-Lenaarts Bremstraat","51.336080","4.662200","https://www.delijn.be/nl/haltes/102606","0","1"
"102607","102607","Brecht H. Schoofsstraat","51.346630","4.646410","https://www.delijn.be/nl/haltes/102607","0","2"
"102608","102608","Brecht H. Schoofsstraat","51.346870","4.645970","https://www.delijn.be/nl/haltes/102608","0","2"
"102609","102609","Brecht Sint-Lenaartsebaan","51.369860","4.643700","https://www.delijn.be/nl/haltes/102609","0","2"
"102610","102610","Hoboken Grens Kiel","51.186100","4.374840","https://www.delijn.be/nl/haltes/102610","0","2"
"102611","102611","Brecht Sint-Lenaartsebaan","51.370400","4.643890","https://www.delijn.be/nl/haltes/102611","0","2"
"102620","102620","Merksem Burgemeester Nolf","51.242799","4.441395","https://www.delijn.be/nl/haltes/102620","1","1"
"102623","102623","Herentals Lange Eerselsstraat","51.164160","4.817870","https://www.delijn.be/nl/haltes/102623","0","2"
"102625","102625","Antwerpen Station Luchtbal","51.244730","4.423390","https://www.delijn.be/nl/haltes/102625","0","1"
"102633","102633","Bornem Berkenlaan","51.091100","4.221380","https://www.delijn.be/nl/haltes/102633","0","2"
"102635","102635","Berchem Groenenhoek","51.200090","4.439900","https://www.delijn.be/nl/haltes/102635","0","2"
"102637","102637","Bornem Elisabethstraat","51.094640","4.243220","https://www.delijn.be/nl/haltes/102637","0","2"
"102638","102638","Bornem Jasmijnlaan","51.086180","4.216130","https://www.delijn.be/nl/haltes/102638","0","2"
"102640","102640","Berchem Groenenhoek","51.200190","4.439850","https://www.delijn.be/nl/haltes/102640","0","2"
"102642","102642","Hingene Notelaersdreef","51.107470","4.270960","https://www.delijn.be/nl/haltes/102642","0","2"
"102643","102643","Hingene Rietstraat","51.107170","4.263790","https://www.delijn.be/nl/haltes/102643","0","2"
"102645","102645","Antwerpen Groeningerplein","51.219920","4.438350","https://www.delijn.be/nl/haltes/102645","0","2"
"102646","102646","Liezele L. Van Campenhoutstraat","51.058060","4.274130","https://www.delijn.be/nl/haltes/102646","0","2"
"102647","102647","Mariekerke Sint-Jansbeekveld","51.066480","4.199990","https://www.delijn.be/nl/haltes/102647","0","2"
"102649","102649","Sint-Amands Kouterpark","51.052690","4.203220","https://www.delijn.be/nl/haltes/102649","0","2"
"102650","102650","Borgerhout Groeningerplein","51.220160","4.438030","https://www.delijn.be/nl/haltes/102650","0","2"
"102652","102652","Ruisbroek Pullaarsteenweg","51.068240","4.324630","https://www.delijn.be/nl/haltes/102652","0","2"
"102656","102656","Lippelo 's Gravenkasteel","51.043890","4.268840","https://www.delijn.be/nl/haltes/102656","0","2"
"102657","102657","Puurs Hooiveld","51.071630","4.279020","https://www.delijn.be/nl/haltes/102657","0","2"
"102658","102658","Hoogstraten Kerk","51.400630","4.760280","https://www.delijn.be/nl/haltes/102658","1","2"
"102661","102661","Oosterwijk Kamp C","51.132218","4.865115","https://www.delijn.be/nl/haltes/102661","0","2"
"102662","102662","Oosterwijk Kamp C","51.132340","4.865270","https://www.delijn.be/nl/haltes/102662","0","2"
"102665","102665","Antwerpen Groenplaats","51.218600","4.401400","https://www.delijn.be/nl/haltes/102665","0","1"
"102668","102668","Herselt Gijmelsesteenweg","51.026910","4.895400","https://www.delijn.be/nl/haltes/102668","0","2"
"102669","102669","Loenhout Weehagenweg","51.375090","4.644700","https://www.delijn.be/nl/haltes/102669","0","2"
"102670","102670","Antwerpen Groenplaats","51.218620","4.401700","https://www.delijn.be/nl/haltes/102670","0","1"
"102671","102671","Loenhout Weehagenweg","51.374980","4.644810","https://www.delijn.be/nl/haltes/102671","0","2"
"102672","102672","Gierle Het Laar","51.283250","4.857670","https://www.delijn.be/nl/haltes/102672","0","2"
"102673","102673","Gierle Het Laar","51.283300","4.857830","https://www.delijn.be/nl/haltes/102673","0","2"
"102675","102675","Antwerpen Groenplaats","51.218700","4.401580","https://www.delijn.be/nl/haltes/102675","0","1"
"102679","102679","Mechelen Station perron 15","51.018790","4.483840","https://www.delijn.be/nl/haltes/102679","0","1"
"102680","102680","Antwerpen Groothandelsmarkt","51.192830","4.372820","https://www.delijn.be/nl/haltes/102680","0","2"
"102681","102681","Antwerpen Groothandelsmarkt","51.192590","4.370800","https://www.delijn.be/nl/haltes/102681","0","2"
"102684","102684","Berlaar Kerk","51.118290","4.660800","https://www.delijn.be/nl/haltes/102684","0","2"
"102687","102687","Antwerpen Lamorinièrestraat","51.207820","4.424290","https://www.delijn.be/nl/haltes/102687","0","2"
"102688","102688","Antwerpen Lamorinièrestraat","51.207600","4.424440","https://www.delijn.be/nl/haltes/102688","0","2"
"102689","102689","Antwerpen Sporthal Linkeroever","51.220470","4.370290","https://www.delijn.be/nl/haltes/102689","1","2"
"102691","102691","Hoboken P+R Schoonselhof","51.168780","4.361210","https://www.delijn.be/nl/haltes/102691","1","1"
"102692","102692","Hoboken P+R Schoonselhof","51.168770","4.361650","https://www.delijn.be/nl/haltes/102692","1","1"
"102693","102693","Wilrijk Crematorium","51.170990","4.374240","https://www.delijn.be/nl/haltes/102693","1","2"
"102694","102694","Wilrijk Crematorium","51.170790","4.374340","https://www.delijn.be/nl/haltes/102694","1","2"
"102695","102695","Merksem Gudrunlaan","51.247490","4.439370","https://www.delijn.be/nl/haltes/102695","0","2"
"102697","102697","Wilrijk Valaardreef","51.172030","4.381150","https://www.delijn.be/nl/haltes/102697","1","2"
"102698","102698","Wilrijk Valaardreef","51.171750","4.381060","https://www.delijn.be/nl/haltes/102698","1","2"
"102701","102701","Sint-Lenaarts Laboureur","51.370540","4.712210","https://www.delijn.be/nl/haltes/102701","0","2"
